[
    {
        "id": "6222bfa2-4d91-48ee-b7a4-9626826e61dc",
        "name": "Malmö Centralstation",
        "coordinates": [
            55.608777,
            13.000216
        ],
        "transport_mode": "rail"
    },
    {
        "id": "3b81daf2-395d-4353-9034-ea40eb3d1b52",
        "name": "Malmö Centralstation",
        "coordinates": [
            55.608777,
            13.000216
        ],
        "transport_mode": "bus"
    },
    {
        "id": "80d9d4e9-0f24-46e0-8436-d27388a2beab",
        "name": "Malmö Centralstation",
        "coordinates": [
            55.608777,
            13.000216
        ],
        "transport_mode": "rail"
    },
    {
        "id": "29d2830d-d077-44b9-9273-5c3a80cad525",
        "name": "Hässleholm Centralstation",
        "coordinates": [
            56.15804,
            13.763268
        ],
        "transport_mode": "rail"
    },
    {
        "id": "b1e327ed-2d09-486c-9ede-cafacae607c2",
        "name": "Hässleholm Centralstation",
        "coordinates": [
            56.15804,
            13.763268
        ],
        "transport_mode": "bus"
    },
    {
        "id": "0c11f30d-c7af-4e86-b8c7-41cf3446994b",
        "name": "Hässleholm Centralstation",
        "coordinates": [
            56.15804,
            13.763268
        ],
        "transport_mode": "rail"
    },
    {
        "id": "1fa46c3b-a6b2-4ef4-8ddc-6973c0eeb8e9",
        "name": "Teckomatorp station",
        "coordinates": [
            55.870823,
            13.08574
        ],
        "transport_mode": "rail"
    },
    {
        "id": "ad6115d8-6450-4a30-948a-b023c2ed27e2",
        "name": "Teckomatorp station",
        "coordinates": [
            55.870823,
            13.08574
        ],
        "transport_mode": "bus"
    },
    {
        "id": "2c7631bf-e412-40d5-be4e-9ac5c8f7383e",
        "name": "Teckomatorp station",
        "coordinates": [
            55.870823,
            13.08574
        ],
        "transport_mode": "rail"
    },
    {
        "id": "04d00058-9223-4c23-bd76-70f5d643843e",
        "name": "Fabian Månssons väg",
        "coordinates": [
            56.112498,
            15.470072
        ],
        "transport_mode": "bus"
    },
    {
        "id": "98aa62c8-ba80-402e-a1d5-834c141b5d0a",
        "name": "Fabian Månssons väg",
        "coordinates": [
            56.112498,
            15.470072
        ],
        "transport_mode": "bus"
    },
    {
        "id": "ac0b40f6-4ed4-4039-989d-451114bebbda",
        "name": "Fabian Månssons väg",
        "coordinates": [
            56.112498,
            15.470072
        ],
        "transport_mode": "bus"
    },
    {
        "id": "e2c69f0c-9d41-4326-a82f-0ae2d0f9e391",
        "name": "Perstorp station",
        "coordinates": [
            56.136456,
            13.397091
        ],
        "transport_mode": "rail"
    },
    {
        "id": "cf1c0243-38fc-43dc-84e8-5780bf89294c",
        "name": "Perstorp station",
        "coordinates": [
            56.136456,
            13.397091
        ],
        "transport_mode": "bus"
    },
    {
        "id": "75a3d7d2-c6e6-4d6d-89d7-2596620b32e7",
        "name": "Perstorp station",
        "coordinates": [
            56.136456,
            13.397091
        ],
        "transport_mode": "rail"
    },
    {
        "id": "b29d6952-81a8-4341-9322-8935e26460af",
        "name": "Ystad station",
        "coordinates": [
            55.427543,
            13.825779
        ],
        "transport_mode": "rail"
    },
    {
        "id": "1751b1b1-6ed1-4163-abf8-b78c1be9c3be",
        "name": "Ystad station",
        "coordinates": [
            55.427543,
            13.825779
        ],
        "transport_mode": "bus"
    },
    {
        "id": "b7121dd0-3d9d-4ec9-96e8-d60cfcba679b",
        "name": "Ystad station",
        "coordinates": [
            55.427543,
            13.825779
        ],
        "transport_mode": "rail"
    },
    {
        "id": "9b2168a9-dacd-4718-917f-6d777249105a",
        "name": "Lönsboda busstation",
        "coordinates": [
            56.396506,
            14.320809
        ],
        "transport_mode": "bus"
    },
    {
        "id": "f9e079a5-16d9-46f7-8917-4983666b969a",
        "name": "Helsingborg Centralstation",
        "coordinates": [
            56.043055,
            12.69498
        ],
        "transport_mode": "rail"
    },
    {
        "id": "45584e6a-4fe2-4510-9d9f-312e6dc0d21a",
        "name": "Helsingborg Centralstation",
        "coordinates": [
            56.043055,
            12.69498
        ],
        "transport_mode": "bus"
    },
    {
        "id": "17a4e934-58e5-43cd-83b1-5e7e08e0d45c",
        "name": "Helsingborg Centralstation",
        "coordinates": [
            56.043055,
            12.69498
        ],
        "transport_mode": "rail"
    },
    {
        "id": "10440ba5-7b27-40cf-97ed-33c16296cdd6",
        "name": "Älmhult station",
        "coordinates": [
            56.550786,
            14.137501
        ],
        "transport_mode": "rail"
    },
    {
        "id": "0a3cb9ef-db38-4b16-9ff7-8fecd448c0cb",
        "name": "Älmhult station",
        "coordinates": [
            56.550786,
            14.137501
        ],
        "transport_mode": "bus"
    },
    {
        "id": "262dbf80-7cb5-46f1-b117-272f53bec8b8",
        "name": "Älmhult station",
        "coordinates": [
            56.550786,
            14.137501
        ],
        "transport_mode": "rail"
    },
    {
        "id": "df5ea466-9233-413d-926f-439dd8344b62",
        "name": "Laholm Järnvägsstationen",
        "coordinates": [
            56.501928,
            12.999294
        ],
        "transport_mode": "bus"
    },
    {
        "id": "1c29951c-f412-4784-93ba-b1befb534911",
        "name": "Laholm Järnvägsstationen",
        "coordinates": [
            56.501928,
            12.999294
        ],
        "transport_mode": "bus"
    },
    {
        "id": "b26edc51-3559-454e-94f9-52cdce31d0e3",
        "name": "Laholm Järnvägsstationen",
        "coordinates": [
            56.501928,
            12.999294
        ],
        "transport_mode": "rail"
    },
    {
        "id": "efe2b03b-edb0-4734-8a35-7cb99e65294d",
        "name": "Ängelholm station",
        "coordinates": [
            56.245732,
            12.854202
        ],
        "transport_mode": "rail"
    },
    {
        "id": "e2409b95-10dc-4935-aa2b-9c52ee3a79d6",
        "name": "Ängelholm station",
        "coordinates": [
            56.245732,
            12.854202
        ],
        "transport_mode": "bus"
    },
    {
        "id": "77b6e987-07db-4ae4-bbce-bce68592fd07",
        "name": "Ängelholm station",
        "coordinates": [
            56.245732,
            12.854202
        ],
        "transport_mode": "rail"
    },
    {
        "id": "815de5aa-62f7-4294-848e-037b72dfd11c",
        "name": "Ronneby resecentrum",
        "coordinates": [
            56.206431,
            15.283848
        ],
        "transport_mode": "bus"
    },
    {
        "id": "43b0b04e-ee13-40e7-b6ba-5fc30da8fbed",
        "name": "Ronneby resecentrum",
        "coordinates": [
            56.206431,
            15.283848
        ],
        "transport_mode": "bus"
    },
    {
        "id": "1f167b00-0164-4ed9-b8ee-0fecd2ae181c",
        "name": "Ronneby resecentrum",
        "coordinates": [
            56.206431,
            15.283848
        ],
        "transport_mode": "bus"
    },
    {
        "id": "8e683089-7b8f-4f79-a035-efb1bbf5dd1c",
        "name": "Karlshamns resecentrum",
        "coordinates": [
            56.175806,
            14.867536
        ],
        "transport_mode": "bus"
    },
    {
        "id": "d126a4e0-41ba-4354-970d-3cd77e26930c",
        "name": "Karlshamns resecentrum",
        "coordinates": [
            56.175806,
            14.867536
        ],
        "transport_mode": "bus"
    },
    {
        "id": "88c770a5-714f-4863-a12c-acf8e3643c84",
        "name": "Karlshamns resecentrum",
        "coordinates": [
            56.175806,
            14.867536
        ],
        "transport_mode": "bus"
    },
    {
        "id": "d13582e2-4008-4ffb-8ee6-5c3eaa6c98cc",
        "name": "Sölvesborgs resecentrum",
        "coordinates": [
            56.050293,
            14.583849
        ],
        "transport_mode": "bus"
    },
    {
        "id": "cd5b063d-4d60-4d77-b31c-36a18b2b80eb",
        "name": "Sölvesborgs resecentrum",
        "coordinates": [
            56.050293,
            14.583849
        ],
        "transport_mode": "bus"
    },
    {
        "id": "fa3bce16-8e49-4a71-a8ca-d81c211d94c2",
        "name": "Sölvesborgs resecentrum",
        "coordinates": [
            56.050293,
            14.583849
        ],
        "transport_mode": "bus"
    },
    {
        "id": "5295f325-da73-4503-aa90-499037d0f42e",
        "name": "Trelleborg C",
        "coordinates": [
            55.371691,
            13.160428
        ],
        "transport_mode": "rail"
    },
    {
        "id": "d24dc5ab-1e22-40c9-ba35-9436f2f2bbf1",
        "name": "Trelleborg C",
        "coordinates": [
            55.371691,
            13.160428
        ],
        "transport_mode": "bus"
    },
    {
        "id": "e427f5aa-482c-4afd-bcff-2cc2ad22d4ba",
        "name": "Trelleborg C",
        "coordinates": [
            55.371691,
            13.160428
        ],
        "transport_mode": "rail"
    },
    {
        "id": "879d1d8d-3f55-4edb-b219-1e8682aa29e5",
        "name": "Bjuv station",
        "coordinates": [
            56.083496,
            12.912574
        ],
        "transport_mode": "rail"
    },
    {
        "id": "c6b8cff1-9256-4050-8939-09a65028822c",
        "name": "Bjuv station",
        "coordinates": [
            56.083496,
            12.912574
        ],
        "transport_mode": "bus"
    },
    {
        "id": "98a2bd89-91d7-44a9-bba2-d4b31370b4be",
        "name": "Bjuv station",
        "coordinates": [
            56.083496,
            12.912574
        ],
        "transport_mode": "rail"
    },
    {
        "id": "a1b4aad8-4416-4cf6-9b95-c6758bc3d7c0",
        "name": "Kallinge torg",
        "coordinates": [
            56.246024,
            15.286922
        ],
        "transport_mode": "bus"
    },
    {
        "id": "6a34cc2a-f663-49bb-be25-042f25c63f88",
        "name": "Kallinge torg",
        "coordinates": [
            56.246024,
            15.286922
        ],
        "transport_mode": "bus"
    },
    {
        "id": "2b11d274-e284-4908-bf3d-788bd9032649",
        "name": "Kallinge torg",
        "coordinates": [
            56.246024,
            15.286922
        ],
        "transport_mode": "bus"
    },
    {
        "id": "da533950-4ac4-4b59-a37f-08ab41811a6c",
        "name": "Lund Centralstation",
        "coordinates": [
            55.706384,
            13.187015
        ],
        "transport_mode": "rail"
    },
    {
        "id": "02372fc9-9425-4e09-9c1b-ff03f005ece1",
        "name": "Lund Centralstation",
        "coordinates": [
            55.706384,
            13.187015
        ],
        "transport_mode": "bus"
    },
    {
        "id": "eadfad2a-7922-4918-b335-5d0270e5134d",
        "name": "Lund Centralstation",
        "coordinates": [
            55.706384,
            13.187015
        ],
        "transport_mode": "rail"
    },
    {
        "id": "ca766856-4e6a-4513-8e2a-66dc4e96d983",
        "name": "Klippan station",
        "coordinates": [
            56.130959,
            13.128028
        ],
        "transport_mode": "bus"
    },
    {
        "id": "2a06c639-9b39-4721-a205-2b4d3edb858c",
        "name": "Klippan station",
        "coordinates": [
            56.130959,
            13.128028
        ],
        "transport_mode": "bus"
    },
    {
        "id": "144096eb-cd88-46ca-bbe0-6d4d87df642d",
        "name": "Klippan station",
        "coordinates": [
            56.130959,
            13.128028
        ],
        "transport_mode": "rail"
    },
    {
        "id": "727244ce-66b8-407f-abee-a1d4bd67393b",
        "name": "Ryd terminal",
        "coordinates": [
            56.461963,
            14.692959
        ],
        "transport_mode": "bus"
    },
    {
        "id": "44d06d89-18e1-44a4-8164-43c70654fdb8",
        "name": "Strömsnäsbruk",
        "coordinates": [
            56.550581,
            13.731998
        ],
        "transport_mode": "bus"
    },
    {
        "id": "977c78ec-f241-4f7b-96fe-8563e8589c41",
        "name": "Skurup station",
        "coordinates": [
            55.480082,
            13.498144
        ],
        "transport_mode": "rail"
    },
    {
        "id": "2d535871-2818-4a7d-aeba-da44470620eb",
        "name": "Skurup station",
        "coordinates": [
            55.480082,
            13.498144
        ],
        "transport_mode": "bus"
    },
    {
        "id": "7ed4fc11-4a89-435c-b080-105e70f923d4",
        "name": "Skurup station",
        "coordinates": [
            55.480082,
            13.498144
        ],
        "transport_mode": "rail"
    },
    {
        "id": "e0a315af-6860-49d3-b962-f3dc08ab6f14",
        "name": "Bromölla station",
        "coordinates": [
            56.067266,
            14.479264
        ],
        "transport_mode": "rail"
    },
    {
        "id": "cc1bf6da-5d67-4e52-88c3-c090fd6159b2",
        "name": "Bromölla station",
        "coordinates": [
            56.067266,
            14.479264
        ],
        "transport_mode": "bus"
    },
    {
        "id": "32d05c4f-b381-4952-9f31-b210fc01858c",
        "name": "Bromölla station",
        "coordinates": [
            56.067266,
            14.479264
        ],
        "transport_mode": "rail"
    },
    {
        "id": "e2372b3d-ec69-4dc7-a7ec-635e1a12a8b5",
        "name": "Åstorp station",
        "coordinates": [
            56.134302,
            12.949692
        ],
        "transport_mode": "rail"
    },
    {
        "id": "b8edfd14-8599-4215-8c4b-53309ff61999",
        "name": "Åstorp station",
        "coordinates": [
            56.134302,
            12.949692
        ],
        "transport_mode": "bus"
    },
    {
        "id": "be065b81-976c-4264-9b3f-1ad1f46af814",
        "name": "Åstorp station",
        "coordinates": [
            56.134302,
            12.949692
        ],
        "transport_mode": "rail"
    },
    {
        "id": "6c3932fc-1541-4cf9-8efa-2f9496c2b86b",
        "name": "Simrishamn station",
        "coordinates": [
            55.554461,
            14.352913
        ],
        "transport_mode": "rail"
    },
    {
        "id": "01a4d9d9-c513-4da7-a15c-c7199c0f69c9",
        "name": "Simrishamn station",
        "coordinates": [
            55.554461,
            14.352913
        ],
        "transport_mode": "bus"
    },
    {
        "id": "1a18c7eb-6ab8-4f2c-8a11-e15a3419aa5f",
        "name": "Simrishamn station",
        "coordinates": [
            55.554461,
            14.352913
        ],
        "transport_mode": "rail"
    },
    {
        "id": "9b6daecc-0632-48d4-94ba-8dc9f8e1c401",
        "name": "Vinslöv station",
        "coordinates": [
            56.104928,
            13.916541
        ],
        "transport_mode": "rail"
    },
    {
        "id": "ba2c7789-969f-4e7d-8c13-d54f4730f206",
        "name": "Vinslöv station",
        "coordinates": [
            56.104928,
            13.916541
        ],
        "transport_mode": "bus"
    },
    {
        "id": "208bda4a-0cd8-48f3-bf67-2086cd5636f9",
        "name": "Vinslöv station",
        "coordinates": [
            56.104928,
            13.916541
        ],
        "transport_mode": "rail"
    },
    {
        "id": "f279eb6e-a9a5-4a52-b0bd-a2c9490f9fe6",
        "name": "Höör station",
        "coordinates": [
            55.936896,
            13.540878
        ],
        "transport_mode": "rail"
    },
    {
        "id": "abe1a771-dce2-4991-bcdc-c481b6a8371b",
        "name": "Höör station",
        "coordinates": [
            55.936896,
            13.540878
        ],
        "transport_mode": "bus"
    },
    {
        "id": "b9fe2e5e-cf26-4346-be1e-db92e31e0459",
        "name": "Höör station",
        "coordinates": [
            55.936896,
            13.540878
        ],
        "transport_mode": "rail"
    },
    {
        "id": "cbf599df-ec11-4f65-968f-27c9178cd0a4",
        "name": "Svängsta centrum",
        "coordinates": [
            56.263288,
            14.770938
        ],
        "transport_mode": "bus"
    },
    {
        "id": "4935f785-ba6d-44ee-9ffa-0ecbfedb85f6",
        "name": "Kristianstad Centralstation",
        "coordinates": [
            56.031875,
            14.151364
        ],
        "transport_mode": "rail"
    },
    {
        "id": "8be31b78-75cf-4b2a-af2d-00c6f3219f57",
        "name": "Kristianstad Centralstation",
        "coordinates": [
            56.031875,
            14.151364
        ],
        "transport_mode": "bus"
    },
    {
        "id": "d135e306-536d-475f-a7c0-73fe29f37491",
        "name": "Kristianstad Centralstation",
        "coordinates": [
            56.031875,
            14.151364
        ],
        "transport_mode": "rail"
    },
    {
        "id": "2f45e8e0-80eb-4088-9c7f-284794a382d9",
        "name": "Landskrona Drottninggatan",
        "coordinates": [
            55.867896,
            12.830868
        ],
        "transport_mode": "bus"
    },
    {
        "id": "78cd1d0c-b84e-4b70-b863-a1aa283b8934",
        "name": "Karlskrona Centralstation",
        "coordinates": [
            56.166671,
            15.585368
        ],
        "transport_mode": "rail"
    },
    {
        "id": "8aaaec6e-e660-45c4-809c-733e0df26ff3",
        "name": "Karlskrona Centralstation",
        "coordinates": [
            56.166671,
            15.585368
        ],
        "transport_mode": "bus"
    },
    {
        "id": "a9488a82-adfe-4df3-8bc5-51445b84f1e3",
        "name": "Karlskrona Centralstation",
        "coordinates": [
            56.166671,
            15.585368
        ],
        "transport_mode": "rail"
    },
    {
        "id": "8d927961-71b8-4c63-94e3-22565df791d6",
        "name": "Markaryd station",
        "coordinates": [
            56.457996,
            13.593725
        ],
        "transport_mode": "bus"
    },
    {
        "id": "49a9752c-ad74-47d9-bfa5-3109d926200e",
        "name": "Markaryd station",
        "coordinates": [
            56.457996,
            13.593725
        ],
        "transport_mode": "bus"
    },
    {
        "id": "bd4199d2-ca0b-49e8-a405-2357613fe06b",
        "name": "Markaryd station",
        "coordinates": [
            56.457996,
            13.593725
        ],
        "transport_mode": "rail"
    },
    {
        "id": "86dda5ad-8109-4915-a28c-48a10fb455ca",
        "name": "Markaryd station",
        "coordinates": [
            56.457996,
            13.593725
        ],
        "transport_mode": "bus"
    },
    {
        "id": "efca7005-ba94-4043-869f-a3f30dce5695",
        "name": "Markaryd station",
        "coordinates": [
            56.457996,
            13.593725
        ],
        "transport_mode": "bus"
    },
    {
        "id": "d3946411-222d-4afd-bbf5-8166b1ed4ad8",
        "name": "Eslöv station",
        "coordinates": [
            55.837448,
            13.305171
        ],
        "transport_mode": "rail"
    },
    {
        "id": "740b46dc-a232-41bb-bef5-dcab7053dc43",
        "name": "Eslöv station",
        "coordinates": [
            55.837448,
            13.305171
        ],
        "transport_mode": "bus"
    },
    {
        "id": "452cf95a-55e2-4e2c-9e7f-67677bf579db",
        "name": "Eslöv station",
        "coordinates": [
            55.837448,
            13.305171
        ],
        "transport_mode": "rail"
    },
    {
        "id": "cdd722ff-2d28-4ec5-9d29-017f6f3f9941",
        "name": "Tyringe station",
        "coordinates": [
            56.15959,
            13.599035
        ],
        "transport_mode": "rail"
    },
    {
        "id": "ef277575-3bcb-42ae-b54a-afdc88f54893",
        "name": "Tyringe station",
        "coordinates": [
            56.15959,
            13.599035
        ],
        "transport_mode": "bus"
    },
    {
        "id": "70b73c1c-d3e0-4e98-9a38-b5e1c1fde4cc",
        "name": "Tyringe station",
        "coordinates": [
            56.15959,
            13.599035
        ],
        "transport_mode": "rail"
    },
    {
        "id": "f0a4aaa3-42ae-4b16-ae7b-7207b0925c48",
        "name": "Osby station",
        "coordinates": [
            56.380586,
            13.995503
        ],
        "transport_mode": "rail"
    },
    {
        "id": "f0639900-d9a6-478d-8f87-f5c4f188aea2",
        "name": "Osby station",
        "coordinates": [
            56.380586,
            13.995503
        ],
        "transport_mode": "bus"
    },
    {
        "id": "132b2847-39a2-47fe-bcee-d3bf4b4241d3",
        "name": "Osby station",
        "coordinates": [
            56.380586,
            13.995503
        ],
        "transport_mode": "rail"
    },
    {
        "id": "e632d223-fa51-4048-ac2a-bef5784b461c",
        "name": "Tomelilla station",
        "coordinates": [
            55.546528,
            13.949163
        ],
        "transport_mode": "rail"
    },
    {
        "id": "d5912599-402f-4c22-b1c3-4fb5db657ff4",
        "name": "Tomelilla station",
        "coordinates": [
            55.546528,
            13.949163
        ],
        "transport_mode": "bus"
    },
    {
        "id": "2d55feca-5c1f-413d-b088-437f799fc220",
        "name": "Tomelilla station",
        "coordinates": [
            55.546528,
            13.949163
        ],
        "transport_mode": "rail"
    },
    {
        "id": "461873a1-adee-487c-aa07-7b305a609167",
        "name": "Jämjö centrum",
        "coordinates": [
            56.191967,
            15.835047
        ],
        "transport_mode": "bus"
    },
    {
        "id": "aab3dfa1-7bef-430f-befe-53a670535eae",
        "name": "Broby busstation",
        "coordinates": [
            56.253662,
            14.075195
        ],
        "transport_mode": "bus"
    },
    {
        "id": "c032a5d4-b2a5-4038-83d0-c842d9fee4b7",
        "name": "Åhus Järnvägsgatan",
        "coordinates": [
            55.927021,
            14.302792
        ],
        "transport_mode": "bus"
    },
    {
        "id": "7e4dc357-f0e8-4b1c-84e9-741ef9e5885e",
        "name": "Kivik torget",
        "coordinates": [
            55.685116,
            14.225589
        ],
        "transport_mode": "bus"
    },
    {
        "id": "37634d9b-18ec-4133-a56f-3e5b647aaa9b",
        "name": "Brösarp bussterminal",
        "coordinates": [
            55.727803,
            14.096774
        ],
        "transport_mode": "bus"
    },
    {
        "id": "a228e12c-2325-47f6-8a56-4e52ed74a924",
        "name": "Degeberga Skaddevägen",
        "coordinates": [
            55.837502,
            14.090144
        ],
        "transport_mode": "bus"
    },
    {
        "id": "ace1a564-90c6-4a84-858d-6e4566057991",
        "name": "Bräkne Hoby",
        "coordinates": [
            56.230799,
            15.115634
        ],
        "transport_mode": "bus"
    },
    {
        "id": "6b26a40b-2144-447c-bbf6-c938e999e2cc",
        "name": "Bräkne Hoby",
        "coordinates": [
            56.230799,
            15.115634
        ],
        "transport_mode": "bus"
    },
    {
        "id": "af5bab3a-ab5b-4996-ae89-5ec2cf9f0ed9",
        "name": "Bräkne Hoby",
        "coordinates": [
            56.230799,
            15.115634
        ],
        "transport_mode": "rail"
    },
    {
        "id": "939da5b9-3370-45e2-8407-79703d545d69",
        "name": "Tingsryd terminal",
        "coordinates": [
            56.523997,
            14.975528
        ],
        "transport_mode": "bus"
    },
    {
        "id": "d19d9323-9be5-4114-b270-259c0ce532ed",
        "name": "Svedala station",
        "coordinates": [
            55.506943,
            13.233022
        ],
        "transport_mode": "rail"
    },
    {
        "id": "5a51ec0e-c57e-45c6-a959-604c332cbdf5",
        "name": "Svedala station",
        "coordinates": [
            55.506943,
            13.233022
        ],
        "transport_mode": "bus"
    },
    {
        "id": "3749a4b0-4d0f-4468-b96a-8157dfa9dde7",
        "name": "Svedala station",
        "coordinates": [
            55.506943,
            13.233022
        ],
        "transport_mode": "rail"
    },
    {
        "id": "bdf6936e-8706-404e-b0ed-049ec2497fc8",
        "name": "Rydsgård station",
        "coordinates": [
            55.474067,
            13.588783
        ],
        "transport_mode": "rail"
    },
    {
        "id": "e4f6d1bd-4393-4edc-9e69-5c8c45b72de5",
        "name": "Rydsgård station",
        "coordinates": [
            55.474067,
            13.588783
        ],
        "transport_mode": "bus"
    },
    {
        "id": "412f42f1-8daa-40b1-9bef-c22f51b6841d",
        "name": "Rydsgård station",
        "coordinates": [
            55.474067,
            13.588783
        ],
        "transport_mode": "rail"
    },
    {
        "id": "c21b1950-496f-4ddf-8abc-384231190c76",
        "name": "Vittsjö station",
        "coordinates": [
            56.342112,
            13.663264
        ],
        "transport_mode": "rail"
    },
    {
        "id": "2549fbeb-cffa-4c83-89ec-de9ae541b709",
        "name": "Vittsjö station",
        "coordinates": [
            56.342112,
            13.663264
        ],
        "transport_mode": "bus"
    },
    {
        "id": "d44c30fd-2656-47f4-b9e6-c3a61ef2d252",
        "name": "Vittsjö station",
        "coordinates": [
            56.342112,
            13.663264
        ],
        "transport_mode": "rail"
    },
    {
        "id": "ab54e41e-a019-418e-8821-14590445fa61",
        "name": "Ljungbyhed busstation",
        "coordinates": [
            56.075324,
            13.233566
        ],
        "transport_mode": "bus"
    },
    {
        "id": "6e3aa5fa-aad1-49a5-a527-a24cf6ec3db4",
        "name": "Olofströms station",
        "coordinates": [
            56.278973,
            14.520329
        ],
        "transport_mode": "bus"
    },
    {
        "id": "8afcd477-ebc7-4b82-b25b-32d1237969a2",
        "name": "Tollarp biblioteket",
        "coordinates": [
            55.934328,
            13.974643
        ],
        "transport_mode": "bus"
    },
    {
        "id": "f8287a8f-70dd-4841-bac0-1d2f38885917",
        "name": "Kvarnen",
        "coordinates": [
            56.112955,
            15.681575
        ],
        "transport_mode": "bus"
    },
    {
        "id": "a88afa3b-1c8c-4cbf-a53e-f7715ca09720",
        "name": "Klågerup busstation",
        "coordinates": [
            55.59757,
            13.260224
        ],
        "transport_mode": "bus"
    },
    {
        "id": "fe776ffb-62ce-4288-aa1a-b100a4fdedaa",
        "name": "Bad Gastein",
        "coordinates": [
            0.0,
            0.0
        ],
        "transport_mode": "rail"
    },
    {
        "id": "78891afa-aab7-49b3-a7d8-03b67506d19d",
        "name": "Jämshög",
        "coordinates": [
            56.240667,
            14.530839
        ],
        "transport_mode": "bus"
    },
    {
        "id": "addf4c7e-ca24-44cb-8056-210ecce42077",
        "name": "Smygehamn Ängavägen",
        "coordinates": [
            55.345402,
            13.377708
        ],
        "transport_mode": "bus"
    },
    {
        "id": "77a628b1-1f38-41d8-bafd-970e46f88bee",
        "name": "Jenbach",
        "coordinates": [
            0.0,
            0.0
        ],
        "transport_mode": "rail"
    },
    {
        "id": "665e4683-757c-4743-8474-440ef1e66052",
        "name": "Påarp station",
        "coordinates": [
            56.029357,
            12.817214
        ],
        "transport_mode": "rail"
    },
    {
        "id": "3f2fd9b1-eb20-4b67-85ef-2821ff6f4006",
        "name": "Påarp station",
        "coordinates": [
            56.029357,
            12.817214
        ],
        "transport_mode": "bus"
    },
    {
        "id": "cf0ed75b-8ee4-4894-8365-c2cb17a14e7f",
        "name": "Påarp station",
        "coordinates": [
            56.029357,
            12.817214
        ],
        "transport_mode": "rail"
    },
    {
        "id": "1cd48a95-3b71-4bb4-81c2-b7636b9d4e1f",
        "name": "Rödeby centrum",
        "coordinates": [
            56.260694,
            15.618051
        ],
        "transport_mode": "bus"
    },
    {
        "id": "fdec1907-1b85-4745-af4f-b68ea67bdd65",
        "name": "Skånes Fagerhult kyrka",
        "coordinates": [
            56.36848,
            13.470006
        ],
        "transport_mode": "bus"
    },
    {
        "id": "3e2ba4ca-23bd-4f2b-b165-36609714415e",
        "name": "Kyrkhult",
        "coordinates": [
            56.357116,
            14.587137
        ],
        "transport_mode": "bus"
    },
    {
        "id": "c71c7af1-553c-4478-803f-b527ac69ac92",
        "name": "Örkelljunga busstation",
        "coordinates": [
            56.283185,
            13.281349
        ],
        "transport_mode": "bus"
    },
    {
        "id": "84af38f7-575e-4eec-8a72-27be0ffcb136",
        "name": "Nättraby hörnet",
        "coordinates": [
            56.206877,
            15.530721
        ],
        "transport_mode": "bus"
    },
    {
        "id": "04c07d4c-7fbd-43e5-9bc1-785266275c80",
        "name": "Bjärnum busstation",
        "coordinates": [
            56.292205,
            13.71019
        ],
        "transport_mode": "bus"
    },
    {
        "id": "15b1f691-2907-4b13-91b7-9284208c4048",
        "name": "Bergkvara busstation",
        "coordinates": [
            56.394659,
            16.0653
        ],
        "transport_mode": "bus"
    },
    {
        "id": "e7adec8f-7209-4916-9f71-71b2fd76abef",
        "name": "Asarum Storgatan",
        "coordinates": [
            56.208993,
            14.833818
        ],
        "transport_mode": "bus"
    },
    {
        "id": "40c00472-9701-4b35-9f60-a287e71906af",
        "name": "Hälleviks hamn",
        "coordinates": [
            56.012282,
            14.69804
        ],
        "transport_mode": "bus"
    },
    {
        "id": "44d790c3-d6eb-43dd-a87a-0733ac3e18d7",
        "name": "Mjällby centrum",
        "coordinates": [
            56.045711,
            14.678033
        ],
        "transport_mode": "bus"
    },
    {
        "id": "db659a5f-3a3f-4b8b-aadc-0fc3dac89ce7",
        "name": "Hörby busstation",
        "coordinates": [
            55.85641,
            13.670567
        ],
        "transport_mode": "bus"
    },
    {
        "id": "f7b9b2a5-155b-4fde-bb0a-52acdca67299",
        "name": "Brömsebro",
        "coordinates": [
            56.29852,
            16.000816
        ],
        "transport_mode": "bus"
    },
    {
        "id": "af879106-131d-4da2-ba9c-3cb05ae97a74",
        "name": "Lyckeby centrum",
        "coordinates": [
            56.198685,
            15.654731
        ],
        "transport_mode": "bus"
    },
    {
        "id": "d48e3f41-b930-4c8e-b8fb-84b36fce37d8",
        "name": "Förslöv Sandbäcksvägen",
        "coordinates": [
            56.347913,
            12.816695
        ],
        "transport_mode": "bus"
    },
    {
        "id": "932c2b1b-e463-4700-ad5e-787fa0ad09ef",
        "name": "Jonstorp centrum",
        "coordinates": [
            56.227086,
            12.674149
        ],
        "transport_mode": "bus"
    },
    {
        "id": "957693a0-2c87-486f-88cc-9e6e2adc6445",
        "name": "Skillinge busstation",
        "coordinates": [
            55.473407,
            14.278388
        ],
        "transport_mode": "bus"
    },
    {
        "id": "407cf0d5-6f5f-4db4-9e55-b10705561832",
        "name": "Gärsnäs station",
        "coordinates": [
            55.546221,
            14.181036
        ],
        "transport_mode": "rail"
    },
    {
        "id": "7d351a65-54f5-4050-ab33-02fc2ebedc02",
        "name": "Gärsnäs station",
        "coordinates": [
            55.546221,
            14.181036
        ],
        "transport_mode": "bus"
    },
    {
        "id": "24711b3d-dab1-4fb5-aadb-1b2e3b5f0841",
        "name": "Gärsnäs station",
        "coordinates": [
            55.546221,
            14.181036
        ],
        "transport_mode": "rail"
    },
    {
        "id": "50d43879-331f-4a3d-9a6f-746d9af9a487",
        "name": "Vejbystrand centrum",
        "coordinates": [
            56.315075,
            12.769224
        ],
        "transport_mode": "bus"
    },
    {
        "id": "9a2077b3-0ddf-4bce-949d-36f706f36386",
        "name": "Arild bussplatsen",
        "coordinates": [
            56.273153,
            12.577159
        ],
        "transport_mode": "bus"
    },
    {
        "id": "fb6eb725-8a87-4232-88c2-b373fd9bb798",
        "name": "Bara Banvägen",
        "coordinates": [
            55.579644,
            13.191055
        ],
        "transport_mode": "bus"
    },
    {
        "id": "44797c49-7796-45da-81af-db69d7ae471f",
        "name": "Ekeby Flamman",
        "coordinates": [
            55.992159,
            12.972904
        ],
        "transport_mode": "bus"
    },
    {
        "id": "2d110425-aff1-45ac-91e1-d4ee13995f05",
        "name": "Brantevik",
        "coordinates": [
            55.51394,
            14.34771
        ],
        "transport_mode": "bus"
    },
    {
        "id": "98f53065-3d75-480d-bb4f-32ea74dac09d",
        "name": "Södra Möckleby",
        "coordinates": [
            56.356463,
            16.420154
        ],
        "transport_mode": "bus"
    },
    {
        "id": "bc3f9d52-c9b1-452b-a1ce-87439a6348d4",
        "name": "Holmsjö station",
        "coordinates": [
            56.421735,
            15.542441
        ],
        "transport_mode": "rail"
    },
    {
        "id": "135defcd-0b7a-451f-9271-13687dbe6381",
        "name": "Holmsjö station",
        "coordinates": [
            56.421735,
            15.542441
        ],
        "transport_mode": "bus"
    },
    {
        "id": "b38432a5-1a2e-4dac-b916-137ff199cebb",
        "name": "Holmsjö station",
        "coordinates": [
            56.421735,
            15.542441
        ],
        "transport_mode": "rail"
    },
    {
        "id": "6f88f84e-de26-49d4-820f-046db3923a08",
        "name": "Stångby station",
        "coordinates": [
            55.751113,
            13.200171
        ],
        "transport_mode": "rail"
    },
    {
        "id": "e13e650a-8eb2-4143-ab07-3cce5619cc16",
        "name": "Stångby station",
        "coordinates": [
            55.751113,
            13.200171
        ],
        "transport_mode": "bus"
    },
    {
        "id": "694d3689-4109-43aa-a1d5-7ad8c16cf3d7",
        "name": "Stångby station",
        "coordinates": [
            55.751113,
            13.200171
        ],
        "transport_mode": "rail"
    },
    {
        "id": "6d53b0e0-0d20-4c60-a21f-5abc6c7ca245",
        "name": "Mörbylånga busstation",
        "coordinates": [
            56.527846,
            16.376318
        ],
        "transport_mode": "bus"
    },
    {
        "id": "c0f6342d-6b41-4d11-9a26-5187e8703971",
        "name": "Mörbylånga busstation",
        "coordinates": [
            56.527846,
            16.376318
        ],
        "transport_mode": "bus"
    },
    {
        "id": "074f05f5-d151-4c2b-8d10-6bd7d289b3a6",
        "name": "Mörbylånga busstation",
        "coordinates": [
            56.527846,
            16.376318
        ],
        "transport_mode": "bus"
    },
    {
        "id": "c046b4c8-afb6-47cb-a87a-d9d5e83c1fd3",
        "name": "Torsås torg",
        "coordinates": [
            56.412178,
            15.997491
        ],
        "transport_mode": "bus"
    },
    {
        "id": "806e5cf4-286b-4f2f-80d2-291f42f3fc6c",
        "name": "Billeberga station",
        "coordinates": [
            55.883761,
            12.995391
        ],
        "transport_mode": "rail"
    },
    {
        "id": "da3c07b9-7b85-4a4c-8928-605c6865e967",
        "name": "Billeberga station",
        "coordinates": [
            55.883761,
            12.995391
        ],
        "transport_mode": "bus"
    },
    {
        "id": "df6a1173-9dda-488b-b144-829e955b3146",
        "name": "Billeberga station",
        "coordinates": [
            55.883761,
            12.995391
        ],
        "transport_mode": "rail"
    },
    {
        "id": "a63ef4df-d6df-4b91-858a-e769bce6380a",
        "name": "Billesholm station",
        "coordinates": [
            56.056299,
            12.976951
        ],
        "transport_mode": "rail"
    },
    {
        "id": "02d06861-94c5-498b-8ccf-800cdb45f53b",
        "name": "Billesholm station",
        "coordinates": [
            56.056299,
            12.976951
        ],
        "transport_mode": "bus"
    },
    {
        "id": "79aa0239-07d5-4223-a3a4-32feb79b4d6d",
        "name": "Billesholm station",
        "coordinates": [
            56.056299,
            12.976951
        ],
        "transport_mode": "rail"
    },
    {
        "id": "8ca7000d-c741-43de-b40c-b0be324e9b86",
        "name": "Bjärred centrum",
        "coordinates": [
            55.722579,
            13.027383
        ],
        "transport_mode": "bus"
    },
    {
        "id": "c3e91c84-8172-489f-a87d-d31165ca4b29",
        "name": "Burlöv station",
        "coordinates": [
            55.640808,
            13.080157
        ],
        "transport_mode": "rail"
    },
    {
        "id": "f60ad6ff-7ddf-4a3a-9cdf-3ab7c2cd3fca",
        "name": "Burlöv station",
        "coordinates": [
            55.640808,
            13.080157
        ],
        "transport_mode": "bus"
    },
    {
        "id": "d96eb9fa-e546-454d-8036-fbf1ee5f138e",
        "name": "Burlöv station",
        "coordinates": [
            55.640808,
            13.080157
        ],
        "transport_mode": "rail"
    },
    {
        "id": "3abcdcba-002a-4023-a38a-5c0df380aac3",
        "name": "Dalby busstation",
        "coordinates": [
            55.664498,
            13.346419
        ],
        "transport_mode": "bus"
    },
    {
        "id": "94d19ef2-a48c-4e3f-a01b-c2684be781da",
        "name": "Dösjebro station",
        "coordinates": [
            55.823084,
            13.031853
        ],
        "transport_mode": "rail"
    },
    {
        "id": "e8ef6896-ad5a-4573-ab3b-0693286856d4",
        "name": "Dösjebro station",
        "coordinates": [
            55.823084,
            13.031853
        ],
        "transport_mode": "bus"
    },
    {
        "id": "1bc95dce-ec4c-4066-9bb1-4fd5b0a5a58a",
        "name": "Dösjebro station",
        "coordinates": [
            55.823084,
            13.031853
        ],
        "transport_mode": "rail"
    },
    {
        "id": "6407bdd0-fe0f-4c28-b160-cc1905134619",
        "name": "Falsterbo Strandbad",
        "coordinates": [
            55.394088,
            12.851237
        ],
        "transport_mode": "bus"
    },
    {
        "id": "7b9bd2e8-430b-464b-ad6a-f3f05bb382ba",
        "name": "Lund Gunnesbo station",
        "coordinates": [
            55.726523,
            13.167866
        ],
        "transport_mode": "rail"
    },
    {
        "id": "e3e4ebde-9e4d-4dee-bbf9-1fd3d208ed1a",
        "name": "Lund Gunnesbo station",
        "coordinates": [
            55.726523,
            13.167866
        ],
        "transport_mode": "bus"
    },
    {
        "id": "f418bd4d-e15d-4e1d-a30e-e80f82313683",
        "name": "Lund Gunnesbo station",
        "coordinates": [
            55.726523,
            13.167866
        ],
        "transport_mode": "rail"
    },
    {
        "id": "e858ce55-62aa-44bc-b748-159fdfd5469b",
        "name": "Hjärup station",
        "coordinates": [
            55.673822,
            13.136595
        ],
        "transport_mode": "rail"
    },
    {
        "id": "a4e4af38-b2da-471c-9f1e-d4477a23e367",
        "name": "Hjärup station",
        "coordinates": [
            55.673822,
            13.136595
        ],
        "transport_mode": "bus"
    },
    {
        "id": "729e8684-4268-48d2-b48c-9e759266e9b2",
        "name": "Hjärup station",
        "coordinates": [
            55.673822,
            13.136595
        ],
        "transport_mode": "rail"
    },
    {
        "id": "e9fc427f-6d8e-47e0-b427-a191d12489da",
        "name": "Höganäs Busstorget",
        "coordinates": [
            56.201057,
            12.558366
        ],
        "transport_mode": "bus"
    },
    {
        "id": "49e623b4-e74e-4f45-8347-ecb163253ae2",
        "name": "Höllviken centrum",
        "coordinates": [
            55.418596,
            12.95268
        ],
        "transport_mode": "bus"
    },
    {
        "id": "a33a22a9-fbf8-4cd1-8d4c-05dae08d72a6",
        "name": "Kävlinge station",
        "coordinates": [
            55.79459,
            13.111332
        ],
        "transport_mode": "rail"
    },
    {
        "id": "1f60fa6b-5f5d-49ab-98a5-c3cdf569262b",
        "name": "Kävlinge station",
        "coordinates": [
            55.79459,
            13.111332
        ],
        "transport_mode": "bus"
    },
    {
        "id": "262d4c98-f85e-4a61-be76-fe85f078c7e9",
        "name": "Kävlinge station",
        "coordinates": [
            55.79459,
            13.111332
        ],
        "transport_mode": "rail"
    },
    {
        "id": "d500542c-034f-4a71-91f8-a18799ce0eb0",
        "name": "Köpingebro station",
        "coordinates": [
            55.456284,
            13.934278
        ],
        "transport_mode": "rail"
    },
    {
        "id": "e011bd94-a27a-4e04-b384-6454b429ec82",
        "name": "Köpingebro station",
        "coordinates": [
            55.456284,
            13.934278
        ],
        "transport_mode": "bus"
    },
    {
        "id": "1c114314-221c-43f7-816a-38f71553ca79",
        "name": "Köpingebro station",
        "coordinates": [
            55.456284,
            13.934278
        ],
        "transport_mode": "rail"
    },
    {
        "id": "beee7c0a-08d6-4926-b3c8-6bab9a58b650",
        "name": "Lomma busstation",
        "coordinates": [
            55.67387,
            13.069032
        ],
        "transport_mode": "bus"
    },
    {
        "id": "8de832e7-1c22-49f7-be05-75faa882b0d4",
        "name": "Mölle busstation",
        "coordinates": [
            56.282,
            12.499109
        ],
        "transport_mode": "bus"
    },
    {
        "id": "e444bb1b-7ab5-48f6-85a8-5ae14e5fbcc6",
        "name": "Sjöbo Busstation",
        "coordinates": [
            55.630719,
            13.700967
        ],
        "transport_mode": "bus"
    },
    {
        "id": "84106e14-d40d-427e-b6c3-5aa1d0ef034e",
        "name": "Skanör centrum",
        "coordinates": [
            55.411503,
            12.844171
        ],
        "transport_mode": "bus"
    },
    {
        "id": "197613f9-5fbd-4c3c-bc8e-b09435284557",
        "name": "Staffanstorp Storgatan",
        "coordinates": [
            55.640793,
            13.206075
        ],
        "transport_mode": "bus"
    },
    {
        "id": "0eca9a73-71cc-4166-9811-4d3dd86b430e",
        "name": "Stehag station",
        "coordinates": [
            55.900309,
            13.393174
        ],
        "transport_mode": "rail"
    },
    {
        "id": "8920deff-8865-43cd-bdc3-38342976f3b2",
        "name": "Stehag station",
        "coordinates": [
            55.900309,
            13.393174
        ],
        "transport_mode": "bus"
    },
    {
        "id": "33f45949-60ee-4e12-b4c0-3bafcef5c63c",
        "name": "Stehag station",
        "coordinates": [
            55.900309,
            13.393174
        ],
        "transport_mode": "rail"
    },
    {
        "id": "ed00bbd3-50f3-469b-86fa-37bd33dc96de",
        "name": "Svalöv Centrum",
        "coordinates": [
            55.912951,
            13.10637
        ],
        "transport_mode": "bus"
    },
    {
        "id": "7eb0b538-7ae2-4a73-93a9-eff11e7f006a",
        "name": "S Sandby busstation",
        "coordinates": [
            55.717237,
            13.346829
        ],
        "transport_mode": "bus"
    },
    {
        "id": "3ec648df-da3b-4499-8fda-39decea04c88",
        "name": "Veberöd centrum",
        "coordinates": [
            55.633315,
            13.493413
        ],
        "transport_mode": "bus"
    },
    {
        "id": "5b04aaee-8218-40ca-9638-304248495b6c",
        "name": "Vellinge centrum",
        "coordinates": [
            55.472978,
            13.020445
        ],
        "transport_mode": "bus"
    },
    {
        "id": "3f6f7b45-2b74-406e-9b85-5dc5921351e0",
        "name": "Viken centrum",
        "coordinates": [
            56.146508,
            12.579248
        ],
        "transport_mode": "bus"
    },
    {
        "id": "7b6e2664-7adf-4a6f-ad4d-e08ae3f6b7ec",
        "name": "Åkarp station",
        "coordinates": [
            55.655956,
            13.106487
        ],
        "transport_mode": "rail"
    },
    {
        "id": "7904e84a-9714-4955-94b0-fc33de979478",
        "name": "Åkarp station",
        "coordinates": [
            55.655956,
            13.106487
        ],
        "transport_mode": "bus"
    },
    {
        "id": "ed6d3e80-506c-44ec-9ca4-1e719dba90b8",
        "name": "Åkarp station",
        "coordinates": [
            55.655956,
            13.106487
        ],
        "transport_mode": "rail"
    },
    {
        "id": "f7e56877-43d3-4d8e-9347-d182a6780efa",
        "name": "Örtofta station",
        "coordinates": [
            55.778652,
            13.243736
        ],
        "transport_mode": "rail"
    },
    {
        "id": "57d225ab-66c8-4850-b897-b0ce916a3eb8",
        "name": "Örtofta station",
        "coordinates": [
            55.778652,
            13.243736
        ],
        "transport_mode": "bus"
    },
    {
        "id": "0b3e34f1-7fd4-48ce-86f7-b089b7fb9467",
        "name": "Örtofta station",
        "coordinates": [
            55.778652,
            13.243736
        ],
        "transport_mode": "rail"
    },
    {
        "id": "785b0da2-47e9-4241-a632-a0eebbeeb05e",
        "name": "Baskemölla Gladsaxvägen",
        "coordinates": [
            55.590477,
            14.312069
        ],
        "transport_mode": "bus"
    },
    {
        "id": "a9bbabd7-d45b-438f-ac1d-8c04e31b2c4a",
        "name": "Ottenby gård",
        "coordinates": [
            56.234466,
            16.41609
        ],
        "transport_mode": "bus"
    },
    {
        "id": "2e29d711-69c6-4009-86c3-f7ce60fe23fe",
        "name": "Abbekås",
        "coordinates": [
            55.394086,
            13.59369
        ],
        "transport_mode": "bus"
    },
    {
        "id": "734a14b0-294e-499c-ade9-00bc4ec3e31d",
        "name": "Arkelstorp Affären",
        "coordinates": [
            56.173219,
            14.282974
        ],
        "transport_mode": "bus"
    },
    {
        "id": "053d2115-8b61-4c34-b1bf-4c6d69f28f2e",
        "name": "Backaryd",
        "coordinates": [
            56.347766,
            15.153211
        ],
        "transport_mode": "bus"
    },
    {
        "id": "d77abe2c-522f-488b-bdd7-504185b36639",
        "name": "Borrby busstation",
        "coordinates": [
            55.456286,
            14.177465
        ],
        "transport_mode": "bus"
    },
    {
        "id": "09a80eea-887c-4a76-931d-9d2aa5f558b1",
        "name": "Bårslöv Snödroppegatan",
        "coordinates": [
            56.009072,
            12.811131
        ],
        "transport_mode": "bus"
    },
    {
        "id": "18f03124-c3f3-458c-8324-56f3d77ad715",
        "name": "Fågelmara",
        "coordinates": [
            56.259991,
            15.949018
        ],
        "transport_mode": "bus"
    },
    {
        "id": "e40843a7-38e0-46ee-9b02-386db0fb8ede",
        "name": "Glimåkra busstation",
        "coordinates": [
            56.30518,
            14.135638
        ],
        "transport_mode": "bus"
    },
    {
        "id": "a2f02791-ed29-46c2-b279-b0049de55fa6",
        "name": "Glumslöv Ålabodsvägen",
        "coordinates": [
            55.941501,
            12.812013
        ],
        "transport_mode": "bus"
    },
    {
        "id": "c4a986df-6e33-4159-b464-4a16129ba737",
        "name": "Grönhögen",
        "coordinates": [
            56.268585,
            16.401412
        ],
        "transport_mode": "bus"
    },
    {
        "id": "17124e18-b8fc-43a8-bec9-5050e272e9c7",
        "name": "Hallabro",
        "coordinates": [
            56.389502,
            15.102547
        ],
        "transport_mode": "bus"
    },
    {
        "id": "74eca99a-d4d6-4a2e-a40d-ef065375abf5",
        "name": "Hanaskog Busstation",
        "coordinates": [
            56.158637,
            14.094007
        ],
        "transport_mode": "bus"
    },
    {
        "id": "78bd43b1-6c55-4303-88b8-f1ed5607300b",
        "name": "Hittarp Sundsliden",
        "coordinates": [
            56.096887,
            12.643564
        ],
        "transport_mode": "bus"
    },
    {
        "id": "8f6df725-ebe2-45f9-a8b4-c93aac05e8c2",
        "name": "Immeln",
        "coordinates": [
            56.203403,
            14.246536
        ],
        "transport_mode": "bus"
    },
    {
        "id": "45fc91cc-0221-473a-8afa-4fc8b39ace90",
        "name": "Anderslöv torget",
        "coordinates": [
            55.438242,
            13.317278
        ],
        "transport_mode": "bus"
    },
    {
        "id": "20cda4fe-3cda-4961-915f-2c3c9eccc40b",
        "name": "Beddingestrand Granhyddan",
        "coordinates": [
            55.364055,
            13.43075
        ],
        "transport_mode": "bus"
    },
    {
        "id": "2a40a259-0d5f-4547-8af8-225c0ae918d2",
        "name": "Hanö",
        "coordinates": [
            56.009998,
            14.836386
        ],
        "transport_mode": "water"
    },
    {
        "id": "575f9469-df3d-4234-9793-0bd2cf740448",
        "name": "Kåseberga",
        "coordinates": [
            55.386741,
            14.065093
        ],
        "transport_mode": "bus"
    },
    {
        "id": "34a76108-c7d6-47f7-8124-63be13d06b2f",
        "name": "Nybrostrand badet",
        "coordinates": [
            55.432208,
            13.947299
        ],
        "transport_mode": "bus"
    },
    {
        "id": "3f502b04-b8cd-4b45-ab34-0efd62aa6b8d",
        "name": "Ven Bäckviken",
        "coordinates": [
            55.903824,
            12.722206
        ],
        "transport_mode": "bus"
    },
    {
        "id": "e88656e4-426e-4856-8af2-430b4d515883",
        "name": "Ven Bäckviken",
        "coordinates": [
            55.903824,
            12.722206
        ],
        "transport_mode": "bus"
    },
    {
        "id": "ae4091e5-70c7-473c-9482-bc45775db207",
        "name": "Ven Bäckviken",
        "coordinates": [
            55.903824,
            12.722206
        ],
        "transport_mode": "water"
    },
    {
        "id": "8ffd7f80-8b98-485d-b92d-087578a61ea3",
        "name": "Ljunghusen Storvägen",
        "coordinates": [
            55.405538,
            12.920899
        ],
        "transport_mode": "bus"
    },
    {
        "id": "b3486884-6598-4091-937c-f0045c1504f2",
        "name": "Lunnarp station",
        "coordinates": [
            55.540966,
            14.043374
        ],
        "transport_mode": "rail"
    },
    {
        "id": "6a169fb7-ebf5-4b9a-a06d-40985cb5112e",
        "name": "Löderup centrum",
        "coordinates": [
            55.438136,
            14.113064
        ],
        "transport_mode": "bus"
    },
    {
        "id": "54edae6d-fd05-4028-8b66-22eafca1da15",
        "name": "Lövestad jvstn",
        "coordinates": [
            55.653605,
            13.891425
        ],
        "transport_mode": "bus"
    },
    {
        "id": "57430274-71dc-43d7-a2e3-bcea764a3d86",
        "name": "Mellbystrand",
        "coordinates": [
            56.514331,
            12.949817
        ],
        "transport_mode": "bus"
    },
    {
        "id": "526c6ebd-2357-4e79-9de7-c2a9827adfab",
        "name": "Mörarp station",
        "coordinates": [
            56.056128,
            12.873066
        ],
        "transport_mode": "rail"
    },
    {
        "id": "602aa7bd-ff87-4607-a27f-3b9209559b04",
        "name": "Mörarp station",
        "coordinates": [
            56.056128,
            12.873066
        ],
        "transport_mode": "bus"
    },
    {
        "id": "fd4cb11f-9905-48a2-8d60-5d85b8c83e27",
        "name": "Mörarp station",
        "coordinates": [
            56.056128,
            12.873066
        ],
        "transport_mode": "rail"
    },
    {
        "id": "231ab20c-2575-404c-aa1f-84c94c55b9ad",
        "name": "Nogersunds hamn",
        "coordinates": [
            56.005378,
            14.738154
        ],
        "transport_mode": "water"
    },
    {
        "id": "4e22e252-829e-4af0-a244-702a3d7a05b1",
        "name": "Ramlösa station",
        "coordinates": [
            56.023359,
            12.727951
        ],
        "transport_mode": "rail"
    },
    {
        "id": "03e2e48a-fafc-4ad1-9d5c-4e36f06028a5",
        "name": "Ramlösa station",
        "coordinates": [
            56.023359,
            12.727951
        ],
        "transport_mode": "bus"
    },
    {
        "id": "b1cfe007-4cc4-4282-95ab-9f301193d7b5",
        "name": "Ramlösa station",
        "coordinates": [
            56.023359,
            12.727951
        ],
        "transport_mode": "rail"
    },
    {
        "id": "e64d8691-4801-4e6a-b326-35c56ab84230",
        "name": "Röstånga busstation",
        "coordinates": [
            56.003283,
            13.289605
        ],
        "transport_mode": "bus"
    },
    {
        "id": "748d2552-3455-414c-ad1a-33186edeb23a",
        "name": "Sibbhult busstation",
        "coordinates": [
            56.267603,
            14.201165
        ],
        "transport_mode": "bus"
    },
    {
        "id": "a3b00bae-2746-47f0-a1ff-b286946a0d74",
        "name": "Skåne Tranås",
        "coordinates": [
            55.614553,
            13.996757
        ],
        "transport_mode": "bus"
    },
    {
        "id": "485b76ce-4240-40a3-9950-7a2fb0e0fa56",
        "name": "Smedstorp station",
        "coordinates": [
            55.549644,
            14.116718
        ],
        "transport_mode": "rail"
    },
    {
        "id": "b93b7987-caaf-483d-9336-bf0cc7ceb9dd",
        "name": "Smedstorp station",
        "coordinates": [
            55.549644,
            14.116718
        ],
        "transport_mode": "bus"
    },
    {
        "id": "dde9cdec-0876-4d68-b807-79079e0d2aa1",
        "name": "Smedstorp station",
        "coordinates": [
            55.549644,
            14.116718
        ],
        "transport_mode": "rail"
    },
    {
        "id": "0e784773-cdc1-4fd6-af51-729630943a77",
        "name": "Sösdala station",
        "coordinates": [
            56.036488,
            13.68043
        ],
        "transport_mode": "rail"
    },
    {
        "id": "5a9b4b92-b038-44dd-97fa-d50513e0da3a",
        "name": "Sösdala station",
        "coordinates": [
            56.036488,
            13.68043
        ],
        "transport_mode": "bus"
    },
    {
        "id": "6e0f4823-c85c-4fde-84b2-abe8b12b4a66",
        "name": "Sösdala station",
        "coordinates": [
            56.036488,
            13.68043
        ],
        "transport_mode": "rail"
    },
    {
        "id": "f38a652f-9c62-46f4-aa95-a9f5d5e0e3b1",
        "name": "Tjärö",
        "coordinates": [
            56.170682,
            15.050225
        ],
        "transport_mode": "water"
    },
    {
        "id": "0bc04c55-9c23-4893-b720-cfdfa0882e5c",
        "name": "Torekov busstation",
        "coordinates": [
            56.424126,
            12.629809
        ],
        "transport_mode": "bus"
    },
    {
        "id": "e860b7ee-0e58-4a5b-83d1-4e0a79cc0407",
        "name": "Tärnö",
        "coordinates": [
            56.121246,
            14.963744
        ],
        "transport_mode": "water"
    },
    {
        "id": "0abc178f-697e-4bc5-b8b7-40101f9bfff8",
        "name": "Klostergården",
        "coordinates": [
            55.6943762240635,
            13.171161860883926
        ],
        "transport_mode": "rail"
    },
    {
        "id": "e17fac9b-6cbe-4786-8494-47c684e0fdda",
        "name": "Vilshult",
        "coordinates": [
            56.358208,
            14.481762
        ],
        "transport_mode": "bus"
    },
    {
        "id": "6a1cd59c-f441-4e75-85a3-9019174dbabe",
        "name": "Vissefjärda station",
        "coordinates": [
            56.538551,
            15.581517
        ],
        "transport_mode": "bus"
    },
    {
        "id": "09f3241b-7d63-4947-a43f-0538ad44b275",
        "name": "Vissefjärda station",
        "coordinates": [
            56.538551,
            15.581517
        ],
        "transport_mode": "bus"
    },
    {
        "id": "13ff154a-5bb6-4954-988d-4fafd81c3ae4",
        "name": "Vissefjärda station",
        "coordinates": [
            56.538551,
            15.581517
        ],
        "transport_mode": "rail"
    },
    {
        "id": "165326b3-fd5e-4c48-8ebf-5521f4004682",
        "name": "Vissefjärda station",
        "coordinates": [
            56.538551,
            15.581517
        ],
        "transport_mode": "bus"
    },
    {
        "id": "de8850c2-e0fd-4b59-b0c2-cf48cb1f356f",
        "name": "Ballingslöv station",
        "coordinates": [
            56.214123,
            13.848319
        ],
        "transport_mode": "rail"
    },
    {
        "id": "b20f0fea-6c4f-4b85-ab3a-6e77553477cf",
        "name": "Ballingslöv station",
        "coordinates": [
            56.214123,
            13.848319
        ],
        "transport_mode": "bus"
    },
    {
        "id": "1b7d18f4-b883-4e68-ad55-81401603cdbf",
        "name": "Ballingslöv station",
        "coordinates": [
            56.214123,
            13.848319
        ],
        "transport_mode": "rail"
    },
    {
        "id": "a7514c32-38df-4534-9705-8acd22768b26",
        "name": "Emmaljunga Hultahusvägen",
        "coordinates": [
            56.398538,
            13.649434
        ],
        "transport_mode": "bus"
    },
    {
        "id": "103592bd-7735-4bf3-87ef-0e335a579f7a",
        "name": "Barkåkra Valhall Park",
        "coordinates": [
            56.284895,
            12.8401
        ],
        "transport_mode": "bus"
    },
    {
        "id": "6ccebc31-1a14-4596-bad1-8342d898a5aa",
        "name": "Kyrkhultsv, Fridafors",
        "coordinates": [
            56.407995,
            14.656612
        ],
        "transport_mode": "bus"
    },
    {
        "id": "b13661a9-551c-4dd1-9aff-06d403bb747e",
        "name": "Genarp busstation",
        "coordinates": [
            55.599409,
            13.400181
        ],
        "transport_mode": "bus"
    },
    {
        "id": "3a454898-cfed-4a21-99c5-6eec632051a8",
        "name": "Grevie Förslövsvägen",
        "coordinates": [
            56.389569,
            12.77669
        ],
        "transport_mode": "bus"
    },
    {
        "id": "fb4f28db-f124-4a4b-931b-2400002cff66",
        "name": "Hov Kyrkan",
        "coordinates": [
            56.434759,
            12.729335
        ],
        "transport_mode": "bus"
    },
    {
        "id": "82d575dc-5010-43f4-8713-ebe1276bd1e2",
        "name": "Hurva E22",
        "coordinates": [
            55.791678,
            13.442173
        ],
        "transport_mode": "bus"
    },
    {
        "id": "8d7aa06e-0d7c-41d0-9356-67241b4d771f",
        "name": "Hörja skolan",
        "coordinates": [
            56.206401,
            13.594878
        ],
        "transport_mode": "bus"
    },
    {
        "id": "d8e4204a-ce13-46b3-848b-6474fa4d2eb4",
        "name": "Postvägen, Konga",
        "coordinates": [
            56.494891,
            15.119837
        ],
        "transport_mode": "bus"
    },
    {
        "id": "33b1cd59-f798-4800-8fdf-0752aaacf2c6",
        "name": "Kågeröd station",
        "coordinates": [
            55.998623,
            13.083465
        ],
        "transport_mode": "rail"
    },
    {
        "id": "a7191921-e3fd-4eb6-85a4-6208028ac82f",
        "name": "Kågeröd station",
        "coordinates": [
            55.998623,
            13.083465
        ],
        "transport_mode": "bus"
    },
    {
        "id": "f489d34d-bab9-429d-9c1f-97d99ba1fd55",
        "name": "Kågeröd station",
        "coordinates": [
            55.998623,
            13.083465
        ],
        "transport_mode": "rail"
    },
    {
        "id": "fa598006-72af-4596-890f-6b1faecb32f1",
        "name": "Malmö Persborg",
        "coordinates": [
            55.580641,
            13.028953
        ],
        "transport_mode": "rail"
    },
    {
        "id": "aa0804df-e5c6-46f0-9683-e640b4b61d12",
        "name": "Malmö Persborg",
        "coordinates": [
            55.580641,
            13.028953
        ],
        "transport_mode": "bus"
    },
    {
        "id": "a0ef47ef-47b4-4c7b-a2be-233ff2e703e7",
        "name": "Malmö Persborg",
        "coordinates": [
            55.580641,
            13.028953
        ],
        "transport_mode": "rail"
    },
    {
        "id": "22e4466f-463c-4cba-b1c8-1f0488881d64",
        "name": "Marieholm centrum",
        "coordinates": [
            55.863376,
            13.154102
        ],
        "transport_mode": "bus"
    },
    {
        "id": "ba9e660b-e8ea-4e37-966e-8192bf5227da",
        "name": "Munka Ljungby Lindagatan",
        "coordinates": [
            56.257613,
            12.962444
        ],
        "transport_mode": "bus"
    },
    {
        "id": "86b33b76-b8b2-4f43-adec-0e8cc4c94ade",
        "name": "Ränneslöv",
        "coordinates": [
            56.453157,
            13.076117
        ],
        "transport_mode": "bus"
    },
    {
        "id": "a982ddbc-ba9d-4ef9-a984-e48d8fc9b06e",
        "name": "Röke kyrka",
        "coordinates": [
            56.234634,
            13.521586
        ],
        "transport_mode": "bus"
    },
    {
        "id": "83e1ee39-cc76-4651-88f7-89aa78a8686b",
        "name": "Stoby Mäster Olofs väg",
        "coordinates": [
            56.17651,
            13.82962
        ],
        "transport_mode": "bus"
    },
    {
        "id": "8d45da92-bacf-40a1-b3c7-1d8f22d529bb",
        "name": "Valje Sissebäck",
        "coordinates": [
            56.063189,
            14.54796
        ],
        "transport_mode": "bus"
    },
    {
        "id": "95f92f61-ff14-41f5-86d7-ddd9bee5dbc3",
        "name": "Vallberga",
        "coordinates": [
            56.467717,
            13.024171
        ],
        "transport_mode": "bus"
    },
    {
        "id": "6bdeba18-0b5d-49fa-b773-d371b9ebb354",
        "name": "Vollsjö Piraten",
        "coordinates": [
            55.702021,
            13.785715
        ],
        "transport_mode": "bus"
    },
    {
        "id": "da24c6bd-7789-44a5-9985-d1aeac32d4e1",
        "name": "Vånga Kyrkan",
        "coordinates": [
            56.180502,
            14.374514
        ],
        "transport_mode": "bus"
    },
    {
        "id": "51df805b-7cfa-4088-8ed6-b35bfe59b998",
        "name": "Våxtorp",
        "coordinates": [
            56.41656,
            13.121646
        ],
        "transport_mode": "bus"
    },
    {
        "id": "4e025edf-3a0e-4db5-9394-216f9fac8250",
        "name": "Västra Karup affären",
        "coordinates": [
            56.410983,
            12.745649
        ],
        "transport_mode": "bus"
    },
    {
        "id": "f6c9fc45-ab35-4657-8dfb-ee399831c5ba",
        "name": "Össjö skola",
        "coordinates": [
            56.228023,
            13.036383
        ],
        "transport_mode": "bus"
    },
    {
        "id": "e99298b5-ebed-488a-9509-630560b0d913",
        "name": "Österslöv Kyrkan",
        "coordinates": [
            56.099365,
            14.249733
        ],
        "transport_mode": "bus"
    },
    {
        "id": "f8bfe129-652b-4e42-8d7f-8518465a0ff8",
        "name": "Östra Ljungby Busstationen",
        "coordinates": [
            56.189774,
            13.065358
        ],
        "transport_mode": "bus"
    },
    {
        "id": "872c2432-8228-490e-a7aa-a77bf3adb6e7",
        "name": "Bergåsa station",
        "coordinates": [
            56.182631,
            15.601347
        ],
        "transport_mode": "bus"
    },
    {
        "id": "1fe49a26-f14f-4482-8496-57cda09a1a23",
        "name": "Bergåsa station",
        "coordinates": [
            56.182631,
            15.601347
        ],
        "transport_mode": "bus"
    },
    {
        "id": "4d5cc678-8bfc-4f8b-b701-71a16b18f7fc",
        "name": "Bergåsa station",
        "coordinates": [
            56.182631,
            15.601347
        ],
        "transport_mode": "rail"
    },
    {
        "id": "4a15994b-0798-4738-b265-4d29bb96dfe4",
        "name": "Vallkärra stationsby",
        "coordinates": [
            55.746377,
            13.145212
        ],
        "transport_mode": "bus"
    },
    {
        "id": "2ada50e7-abdb-413b-9a97-09f0557a3518",
        "name": "Maria station",
        "coordinates": [
            56.075547,
            12.710597
        ],
        "transport_mode": "rail"
    },
    {
        "id": "03dafa89-4900-48bc-ba37-d66d33f8d722",
        "name": "Maria station",
        "coordinates": [
            56.075547,
            12.710597
        ],
        "transport_mode": "bus"
    },
    {
        "id": "15ad540e-8ecd-4cad-8155-fed769a641dd",
        "name": "Maria station",
        "coordinates": [
            56.075547,
            12.710597
        ],
        "transport_mode": "rail"
    },
    {
        "id": "ec9c5cd9-cfde-46e3-9cac-6bb28336b6c5",
        "name": "Ödåkra station",
        "coordinates": [
            56.105547,
            12.745332
        ],
        "transport_mode": "rail"
    },
    {
        "id": "d6dd9470-3e47-4bdd-8217-83bf75786343",
        "name": "Ödåkra station",
        "coordinates": [
            56.105547,
            12.745332
        ],
        "transport_mode": "bus"
    },
    {
        "id": "12145b3c-6f3c-49d6-b7da-23a464741ad2",
        "name": "Ödåkra station",
        "coordinates": [
            56.105547,
            12.745332
        ],
        "transport_mode": "rail"
    },
    {
        "id": "b68d1782-dbec-4dc4-a181-f75ad2e855ac",
        "name": "Kattarp station",
        "coordinates": [
            56.143911,
            12.781217
        ],
        "transport_mode": "rail"
    },
    {
        "id": "e297c86f-37d8-4a91-9a7c-3b09cc386355",
        "name": "Kattarp station",
        "coordinates": [
            56.143911,
            12.781217
        ],
        "transport_mode": "bus"
    },
    {
        "id": "9ae7842b-ae1f-45be-8f7e-fa6b6f07a648",
        "name": "Kattarp station",
        "coordinates": [
            56.143911,
            12.781217
        ],
        "transport_mode": "rail"
    },
    {
        "id": "fb99a1b0-9ac4-4178-b7cd-a90fd083fca8",
        "name": "Malmö Svågertorp",
        "coordinates": [
            55.548283,
            12.991168
        ],
        "transport_mode": "rail"
    },
    {
        "id": "ba2d0c5e-e478-4afd-9414-be3cb5cb044c",
        "name": "Malmö Svågertorp",
        "coordinates": [
            55.548283,
            12.991168
        ],
        "transport_mode": "bus"
    },
    {
        "id": "632c97a0-ad72-4bc2-ab30-2d9ca2abd5e0",
        "name": "Malmö Svågertorp",
        "coordinates": [
            55.548283,
            12.991168
        ],
        "transport_mode": "rail"
    },
    {
        "id": "83f43bb8-8326-4268-82b3-16b6c43a4716",
        "name": "Häljarp station",
        "coordinates": [
            55.860986,
            12.91143
        ],
        "transport_mode": "rail"
    },
    {
        "id": "66d898e0-b284-451e-bee1-b11435f7f563",
        "name": "Häljarp station",
        "coordinates": [
            55.860986,
            12.91143
        ],
        "transport_mode": "bus"
    },
    {
        "id": "8158ce0b-f7d4-480a-80a6-6043981c889d",
        "name": "Häljarp station",
        "coordinates": [
            55.860986,
            12.91143
        ],
        "transport_mode": "rail"
    },
    {
        "id": "653a66af-050c-41e0-887a-d73e2e4f273b",
        "name": "Malmö Fosieby",
        "coordinates": [
            55.560214,
            13.030031
        ],
        "transport_mode": "bus"
    },
    {
        "id": "9364589f-6c72-44f3-b414-718104e19314",
        "name": "Landskrona station",
        "coordinates": [
            55.879012,
            12.856617
        ],
        "transport_mode": "rail"
    },
    {
        "id": "cc376965-dfa3-4c86-be13-0572625fd502",
        "name": "Landskrona station",
        "coordinates": [
            55.879012,
            12.856617
        ],
        "transport_mode": "bus"
    },
    {
        "id": "976c08de-2b60-41d8-9f2b-c973665ba3b1",
        "name": "Landskrona station",
        "coordinates": [
            55.879012,
            12.856617
        ],
        "transport_mode": "rail"
    },
    {
        "id": "7f09614a-eb36-46d7-8586-5708287e01a0",
        "name": "Gantofta station",
        "coordinates": [
            55.99036,
            12.805109
        ],
        "transport_mode": "rail"
    },
    {
        "id": "2e7c41c2-e142-44e3-9ce6-9c28aced3295",
        "name": "Gantofta station",
        "coordinates": [
            55.99036,
            12.805109
        ],
        "transport_mode": "bus"
    },
    {
        "id": "6d311530-a87f-42ef-98a9-1f77f610bfc2",
        "name": "Gantofta station",
        "coordinates": [
            55.99036,
            12.805109
        ],
        "transport_mode": "rail"
    },
    {
        "id": "46259644-903f-43b3-8701-ed44095feca7",
        "name": "Tågarp station",
        "coordinates": [
            55.926572,
            12.951816
        ],
        "transport_mode": "rail"
    },
    {
        "id": "1438325d-6623-4f3c-b44a-5f68238c7612",
        "name": "Tågarp station",
        "coordinates": [
            55.926572,
            12.951816
        ],
        "transport_mode": "bus"
    },
    {
        "id": "f715c313-f525-4fdb-976b-02ebd486dff2",
        "name": "Tågarp station",
        "coordinates": [
            55.926572,
            12.951816
        ],
        "transport_mode": "rail"
    },
    {
        "id": "3220da1e-ffb1-400a-a113-32e7b32b15b5",
        "name": "Rydebäck station",
        "coordinates": [
            55.965836,
            12.784114
        ],
        "transport_mode": "rail"
    },
    {
        "id": "8acf5c6c-e98b-4630-a687-22a36821dea7",
        "name": "Rydebäck station",
        "coordinates": [
            55.965836,
            12.784114
        ],
        "transport_mode": "bus"
    },
    {
        "id": "9e22c73d-fa1f-48d3-8a4c-98ad68f0a290",
        "name": "Rydebäck station",
        "coordinates": [
            55.965836,
            12.784114
        ],
        "transport_mode": "rail"
    },
    {
        "id": "7d80e557-bf03-4ec1-b3e4-772408ad60ba",
        "name": "Glumslöv station",
        "coordinates": [
            55.944573,
            12.813441
        ],
        "transport_mode": "rail"
    },
    {
        "id": "defcccf3-4f9c-4638-b3e0-6e5ed77facf4",
        "name": "Glumslöv station",
        "coordinates": [
            55.944573,
            12.813441
        ],
        "transport_mode": "bus"
    },
    {
        "id": "974f1e9c-2fd1-40ef-ab31-4d94341fe19c",
        "name": "Glumslöv station",
        "coordinates": [
            55.944573,
            12.813441
        ],
        "transport_mode": "rail"
    },
    {
        "id": "d4f76a94-510f-478a-982c-af956e15ac35",
        "name": "Malmö Hyllie",
        "coordinates": [
            55.562792,
            12.975828
        ],
        "transport_mode": "rail"
    },
    {
        "id": "e5d8cbfc-57a8-4d27-9f0c-25b142ede87f",
        "name": "Malmö Hyllie",
        "coordinates": [
            55.562792,
            12.975828
        ],
        "transport_mode": "bus"
    },
    {
        "id": "8ef4aac3-6d7c-48e8-acc6-6efd6afb7483",
        "name": "Malmö Hyllie",
        "coordinates": [
            55.562792,
            12.975828
        ],
        "transport_mode": "rail"
    },
    {
        "id": "0e671aea-fda1-4ff7-8b01-4371603fdf1f",
        "name": "Malmö Triangeln",
        "coordinates": [
            55.594285,
            13.000711
        ],
        "transport_mode": "bus"
    },
    {
        "id": "b51b27e6-b0d4-4baa-ad7d-3934d05e4afb",
        "name": "Malmö Triangeln",
        "coordinates": [
            55.594285,
            13.000711
        ],
        "transport_mode": "bus"
    },
    {
        "id": "13b3432f-febc-453a-81f3-4283ddfe5399",
        "name": "Malmö Triangeln",
        "coordinates": [
            55.594285,
            13.000711
        ],
        "transport_mode": "bus"
    },
    {
        "id": "9f7d2989-c021-413a-8e1f-b959819460c9",
        "name": "Malmö Triangeln",
        "coordinates": [
            55.594285,
            13.000711
        ],
        "transport_mode": "rail"
    },
    {
        "id": "0b6f31c5-4f1f-427c-8169-e86ba61f9806",
        "name": "Båstad station",
        "coordinates": [
            56.431787,
            12.906894
        ],
        "transport_mode": "rail"
    },
    {
        "id": "fe48bfd9-3ebc-41c3-8df9-34a8b721d4a0",
        "name": "Båstad station",
        "coordinates": [
            56.431787,
            12.906894
        ],
        "transport_mode": "bus"
    },
    {
        "id": "1ec6fcb9-3692-4722-b033-3bfae2cce0da",
        "name": "Båstad station",
        "coordinates": [
            56.431787,
            12.906894
        ],
        "transport_mode": "rail"
    },
    {
        "id": "ed6a6f5f-f1ff-4ab0-8caf-5f27c673f3da",
        "name": "Killeberg station",
        "coordinates": [
            56.475159,
            14.098624
        ],
        "transport_mode": "rail"
    },
    {
        "id": "2409856a-f8a6-4965-a871-162c5866d418",
        "name": "Killeberg station",
        "coordinates": [
            56.475159,
            14.098624
        ],
        "transport_mode": "bus"
    },
    {
        "id": "b88dd49a-5792-44ac-8a2c-5367e0c94ec7",
        "name": "Killeberg station",
        "coordinates": [
            56.475159,
            14.098624
        ],
        "transport_mode": "rail"
    },
    {
        "id": "ca37e932-bc06-453e-8356-c16da98aba3f",
        "name": "Önnestad station",
        "coordinates": [
            56.060572,
            14.029126
        ],
        "transport_mode": "rail"
    },
    {
        "id": "070dd1b8-0c5a-4ccf-80ab-c7f7b8a4cb49",
        "name": "Önnestad station",
        "coordinates": [
            56.060572,
            14.029126
        ],
        "transport_mode": "bus"
    },
    {
        "id": "838e2c14-8048-4c4a-9893-601bebb6e2a3",
        "name": "Önnestad station",
        "coordinates": [
            56.060572,
            14.029126
        ],
        "transport_mode": "rail"
    },
    {
        "id": "bd5e609d-1bdc-43a8-8e9a-eea4c14524d3",
        "name": "Fjälkinge station",
        "coordinates": [
            56.043356,
            14.279687
        ],
        "transport_mode": "rail"
    },
    {
        "id": "f77a42b6-c468-4942-8a7f-abdcf14d3ce9",
        "name": "Fjälkinge station",
        "coordinates": [
            56.043356,
            14.279687
        ],
        "transport_mode": "bus"
    },
    {
        "id": "f256ef5b-42e9-42f1-ab72-884cd04e138d",
        "name": "Fjälkinge station",
        "coordinates": [
            56.043356,
            14.279687
        ],
        "transport_mode": "rail"
    },
    {
        "id": "1297398a-9492-44c3-9b94-bce48e32363e",
        "name": "Bjärnum station",
        "coordinates": [
            56.291439,
            13.706872
        ],
        "transport_mode": "rail"
    },
    {
        "id": "2b84a91c-36ae-490b-91a9-f945a4d06202",
        "name": "Bjärnum station",
        "coordinates": [
            56.291439,
            13.706872
        ],
        "transport_mode": "rail"
    },
    {
        "id": "877eb48c-e276-4521-9325-717dcb1fc1c9",
        "name": "Bjärnum station",
        "coordinates": [
            56.291439,
            13.706872
        ],
        "transport_mode": "bus"
    },
    {
        "id": "61f13ae3-9d75-48c2-9b52-442c32c9a55b",
        "name": "Kvidinge station",
        "coordinates": [
            56.137171,
            13.045386
        ],
        "transport_mode": "rail"
    },
    {
        "id": "897e54dc-c1cf-4d7b-92d0-e0f0c6d36adb",
        "name": "Kvidinge station",
        "coordinates": [
            56.137171,
            13.045386
        ],
        "transport_mode": "bus"
    },
    {
        "id": "afb0e40c-4af3-4452-a568-39082df59351",
        "name": "Kvidinge station",
        "coordinates": [
            56.137171,
            13.045386
        ],
        "transport_mode": "rail"
    },
    {
        "id": "debe40c5-5306-413c-8278-0698d06f1035",
        "name": "Tjörnarp station",
        "coordinates": [
            56.00023,
            13.629966
        ],
        "transport_mode": "rail"
    },
    {
        "id": "b6cf975b-e34d-4a07-882e-4fad349537f5",
        "name": "Tjörnarp station",
        "coordinates": [
            56.00023,
            13.629966
        ],
        "transport_mode": "bus"
    },
    {
        "id": "a97e465c-96a4-45e5-915d-ad314d7c1b6e",
        "name": "Tjörnarp station",
        "coordinates": [
            56.00023,
            13.629966
        ],
        "transport_mode": "rail"
    },
    {
        "id": "efbf8f74-436a-45ec-bb47-26767d003739",
        "name": "Förslöv station",
        "coordinates": [
            56.354836,
            12.801263
        ],
        "transport_mode": "rail"
    },
    {
        "id": "2ec54b9d-a010-44ee-b5cc-c02c7e6f39f6",
        "name": "Förslöv station",
        "coordinates": [
            56.354836,
            12.801263
        ],
        "transport_mode": "bus"
    },
    {
        "id": "e03ea589-24f2-4853-a919-2c89c7df39b6",
        "name": "Förslöv station",
        "coordinates": [
            56.354836,
            12.801263
        ],
        "transport_mode": "rail"
    },
    {
        "id": "112319b6-9c64-4cc8-88eb-9faacba346e3",
        "name": "Barkåkra station",
        "coordinates": [
            56.287997,
            12.828227
        ],
        "transport_mode": "rail"
    },
    {
        "id": "7ec78549-c54c-44ab-8d3e-3dbed1e114db",
        "name": "Barkåkra station",
        "coordinates": [
            56.287997,
            12.828227
        ],
        "transport_mode": "bus"
    },
    {
        "id": "acc7af05-2ebf-48ec-91ca-169c878ace29",
        "name": "Barkåkra station",
        "coordinates": [
            56.287997,
            12.828227
        ],
        "transport_mode": "rail"
    },
    {
        "id": "fdfd8eb0-6190-4514-bb36-f0b6e8f6c142",
        "name": "Östra Grevie station",
        "coordinates": [
            55.467061,
            13.133416
        ],
        "transport_mode": "rail"
    },
    {
        "id": "073c74ba-b74b-4a9d-92a8-798088316ab3",
        "name": "Östra Grevie station",
        "coordinates": [
            55.467061,
            13.133416
        ],
        "transport_mode": "bus"
    },
    {
        "id": "db0f5caf-cb1c-4f1c-ae60-efb91a28012e",
        "name": "Östra Grevie station",
        "coordinates": [
            55.467061,
            13.133416
        ],
        "transport_mode": "rail"
    },
    {
        "id": "9e2970db-cd59-45c0-bb20-9d0a0acd75d3",
        "name": "Västra Ingelstad station",
        "coordinates": [
            55.490259,
            13.108327
        ],
        "transport_mode": "rail"
    },
    {
        "id": "a5b23e5c-1981-4c41-8816-04b0095725db",
        "name": "Västra Ingelstad station",
        "coordinates": [
            55.490259,
            13.108327
        ],
        "transport_mode": "bus"
    },
    {
        "id": "ea21eaed-a2c7-485a-a140-7ef07e037a78",
        "name": "Västra Ingelstad station",
        "coordinates": [
            55.490259,
            13.108327
        ],
        "transport_mode": "rail"
    },
    {
        "id": "c78c8161-a776-44f6-aa4c-ad8881ab4637",
        "name": "Marieholm station",
        "coordinates": [
            55.864837,
            13.156878
        ],
        "transport_mode": "rail"
    },
    {
        "id": "86be6294-8600-41d0-80d6-c58065a31558",
        "name": "Marieholm station",
        "coordinates": [
            55.864837,
            13.156878
        ],
        "transport_mode": "bus"
    },
    {
        "id": "43d5efc3-6b26-4ac1-8046-49ab4a089a0e",
        "name": "Marieholm station",
        "coordinates": [
            55.864837,
            13.156878
        ],
        "transport_mode": "rail"
    },
    {
        "id": "e8493320-8365-4675-8038-cbe2d6e17cd3",
        "name": "Malmö Rosengård station",
        "coordinates": [
            55.589438,
            13.031727
        ],
        "transport_mode": "rail"
    },
    {
        "id": "c4663a1f-b9c2-4ab7-a7b4-6bfdff88ac51",
        "name": "Malmö Rosengård station",
        "coordinates": [
            55.589438,
            13.031727
        ],
        "transport_mode": "bus"
    },
    {
        "id": "a2060ec3-86f6-4273-bdee-92fb14aeed0c",
        "name": "Malmö Rosengård station",
        "coordinates": [
            55.589438,
            13.031727
        ],
        "transport_mode": "rail"
    },
    {
        "id": "5dc7fdbe-39a7-4de1-9d30-358964a01621",
        "name": "Kalkugnen (Kalkugnen) (Älvkarleby)",
        "coordinates": [
            54.648783,
            19.694783
        ],
        "transport_mode": "bus"
    },
    {
        "id": "46ce015a-82e9-4604-a050-6d0fffc130d1",
        "name": "Fridhem",
        "coordinates": [
            56.407644,
            14.935623
        ],
        "transport_mode": "bus"
    },
    {
        "id": "eda97b3d-1ae7-451a-89c8-68883cc3183c",
        "name": "Dackeskolan",
        "coordinates": [
            56.527814,
            14.974193
        ],
        "transport_mode": "bus"
    },
    {
        "id": "945f794c-2f59-4d2c-a953-f273335af491",
        "name": "Trojaskolan Ryd",
        "coordinates": [
            56.466674,
            14.691572
        ],
        "transport_mode": "bus"
    },
    {
        "id": "a749e0da-cbf0-472f-a598-6af1f1713d5f",
        "name": "Norrahult",
        "coordinates": [
            56.419748,
            14.953285
        ],
        "transport_mode": "bus"
    },
    {
        "id": "d212b872-b120-44f3-a34b-b8177267958b",
        "name": "Degerhaga",
        "coordinates": [
            56.526872,
            14.921077
        ],
        "transport_mode": "bus"
    },
    {
        "id": "83bd4932-9635-4843-bd54-51838f238b8d",
        "name": "Hunnamålavägen",
        "coordinates": [
            56.530031,
            14.819334
        ],
        "transport_mode": "bus"
    },
    {
        "id": "aadabf57-39c8-4052-bcce-07632eb3bfc2",
        "name": "Snickaregård",
        "coordinates": [
            56.529326,
            15.170972
        ],
        "transport_mode": "bus"
    },
    {
        "id": "48f81fe9-4f92-4859-836a-1f9a3c583243",
        "name": "Sjöryd",
        "coordinates": [
            56.51833,
            14.750672
        ],
        "transport_mode": "bus"
    },
    {
        "id": "f96e8c7b-0d74-4af0-b968-8be4ee2568ef",
        "name": "Jämshög, Tingsryd",
        "coordinates": [
            56.536964,
            14.999771
        ],
        "transport_mode": "bus"
    },
    {
        "id": "2c4c2060-6232-4fe9-b02b-f03e5a1d7e17",
        "name": "Kroksjöbo",
        "coordinates": [
            56.5502,
            15.033522
        ],
        "transport_mode": "bus"
    },
    {
        "id": "4a6d7c64-f6e2-4434-8433-a56a2c635464",
        "name": "Södergården",
        "coordinates": [
            56.545082,
            15.023595
        ],
        "transport_mode": "bus"
    },
    {
        "id": "b98bf11b-a17d-4922-babe-d298ca2007fa",
        "name": "Wasaskolan",
        "coordinates": [
            56.531437,
            14.984238
        ],
        "transport_mode": "bus"
    },
    {
        "id": "eb97026e-70df-40da-a826-a635a6e7e104",
        "name": "Storgatan",
        "coordinates": [
            56.521722,
            14.980419
        ],
        "transport_mode": "bus"
    },
    {
        "id": "acf830a0-b40b-4865-bfe8-557f67289917",
        "name": "Bultvägen",
        "coordinates": [
            56.519554,
            14.985308
        ],
        "transport_mode": "bus"
    },
    {
        "id": "fe84cd6c-b2cd-4083-8f3c-283bba91425e",
        "name": "Dubbvägen",
        "coordinates": [
            56.517312,
            14.995445
        ],
        "transport_mode": "bus"
    },
    {
        "id": "74f81806-3912-40d9-a89c-82c280a75f6b",
        "name": "Djuramåla",
        "coordinates": [
            56.463867,
            15.013651
        ],
        "transport_mode": "bus"
    },
    {
        "id": "9874fc12-0b65-482b-a3fe-99bd53796f86",
        "name": "Elserås",
        "coordinates": [
            56.482334,
            15.002781
        ],
        "transport_mode": "bus"
    },
    {
        "id": "0c27fb6d-920b-4da2-af65-b95d6490c5a2",
        "name": "Elsemåla",
        "coordinates": [
            56.490665,
            14.999488
        ],
        "transport_mode": "bus"
    },
    {
        "id": "22b45148-36bd-4fe3-ab9a-48d846cd2f23",
        "name": "Skogryd",
        "coordinates": [
            56.499047,
            14.995819
        ],
        "transport_mode": "bus"
    },
    {
        "id": "d22b2df5-d20b-4b5d-b70d-a70407794edd",
        "name": "Plogvägen Tingsryd",
        "coordinates": [
            56.515013,
            14.99681
        ],
        "transport_mode": "bus"
    },
    {
        "id": "290ee9a5-20ee-4c08-9a68-8d0b588eae15",
        "name": "Hensmåla",
        "coordinates": [
            56.500786,
            15.047907
        ],
        "transport_mode": "bus"
    },
    {
        "id": "ba274171-fdfd-4815-b9d6-3757cab3660b",
        "name": "Hensmåla östra",
        "coordinates": [
            56.498129,
            15.064425
        ],
        "transport_mode": "bus"
    },
    {
        "id": "ca952f5d-157b-4a6b-8bbb-cc527e0a7df5",
        "name": "Kristinelund, Tingsryd",
        "coordinates": [
            56.497273,
            15.074606
        ],
        "transport_mode": "bus"
    },
    {
        "id": "266c55ce-acd1-48db-b1f3-344b7e5cb11f",
        "name": "Aritsbomåla",
        "coordinates": [
            56.504376,
            15.102419
        ],
        "transport_mode": "bus"
    },
    {
        "id": "49c7ee9a-d1f7-4449-b7ad-1b37bc5565ee",
        "name": "Örmoskolan",
        "coordinates": [
            56.499715,
            15.126586
        ],
        "transport_mode": "bus"
    },
    {
        "id": "b3881fbe-1ae3-4401-b5f5-76acf6d00bbd",
        "name": "Dalen",
        "coordinates": [
            56.504746,
            15.128623
        ],
        "transport_mode": "bus"
    },
    {
        "id": "5191c7a3-04e6-4487-96d2-d95403ca0fd6",
        "name": "Södra Sandsjö",
        "coordinates": [
            56.510989,
            15.152161
        ],
        "transport_mode": "bus"
    },
    {
        "id": "cd41be4d-20a0-4298-b3a0-0efc78615588",
        "name": "Södra Sandsjö",
        "coordinates": [
            56.510989,
            15.152161
        ],
        "transport_mode": "bus"
    },
    {
        "id": "0f4a6125-0a91-4586-9048-ed51c5e0cae6",
        "name": "Södra Sandsjö",
        "coordinates": [
            56.510989,
            15.152161
        ],
        "transport_mode": "bus"
    },
    {
        "id": "58f9381a-d2ed-4d3e-bb71-3d37229fec7f",
        "name": "Holmahult",
        "coordinates": [
            56.533456,
            15.174268
        ],
        "transport_mode": "bus"
    },
    {
        "id": "c3d2a354-39b5-46af-ae49-293dd93e4966",
        "name": "Älften",
        "coordinates": [
            56.547039,
            15.18934
        ],
        "transport_mode": "bus"
    },
    {
        "id": "cc40a6a3-a2ba-481a-8eac-cd2d5af600a6",
        "name": "Hemmingsmåla",
        "coordinates": [
            56.549668,
            15.205378
        ],
        "transport_mode": "bus"
    },
    {
        "id": "231d1b7e-7d36-422f-8547-b5de486fd924",
        "name": "Smöramåla",
        "coordinates": [
            56.529955,
            14.825707
        ],
        "transport_mode": "bus"
    },
    {
        "id": "02efb81b-0704-4b17-8b12-4132c00932d9",
        "name": "Trehörna",
        "coordinates": [
            56.532103,
            14.836118
        ],
        "transport_mode": "bus"
    },
    {
        "id": "fa247de5-3131-4c78-86e9-87551effba75",
        "name": "Trehörna östra",
        "coordinates": [
            56.532352,
            14.848593
        ],
        "transport_mode": "bus"
    },
    {
        "id": "a914de8a-492c-4ed4-a587-b81d131b1b8e",
        "name": "Havralyckevägen",
        "coordinates": [
            56.53066,
            14.862157
        ],
        "transport_mode": "bus"
    },
    {
        "id": "d99b06cf-e312-4a9a-a627-526e4ffc84ae",
        "name": "Bredaslätt",
        "coordinates": [
            56.530511,
            14.884198
        ],
        "transport_mode": "bus"
    },
    {
        "id": "26f5198c-b9bc-47f7-93a8-030a8d4d428e",
        "name": "Drakamåla",
        "coordinates": [
            56.530023,
            14.9022
        ],
        "transport_mode": "bus"
    },
    {
        "id": "0b9cb685-be61-47fd-a724-f8429e2ef5d7",
        "name": "Kroksjömåla",
        "coordinates": [
            56.527078,
            14.946487
        ],
        "transport_mode": "bus"
    },
    {
        "id": "ac7e0a3a-ff68-4ea1-a1c7-b6e791e1b82c",
        "name": "Mårslycke",
        "coordinates": [
            56.529498,
            14.956345
        ],
        "transport_mode": "bus"
    },
    {
        "id": "9dd8ef10-4c70-420b-8476-061d57791faf",
        "name": "Vipan",
        "coordinates": [
            56.529723,
            14.968317
        ],
        "transport_mode": "bus"
    },
    {
        "id": "44d475c4-3017-497a-ad58-625d8225bae8",
        "name": "Växjövägen",
        "coordinates": [
            56.531706,
            14.962699
        ],
        "transport_mode": "bus"
    },
    {
        "id": "7ee31da1-96de-4fdf-8903-885efd29e5a7",
        "name": "Solhem",
        "coordinates": [
            56.547821,
            14.955187
        ],
        "transport_mode": "bus"
    },
    {
        "id": "10de0343-ce9c-4abf-9c95-0387beeb526f",
        "name": "Stenshult",
        "coordinates": [
            56.519369,
            14.63511
        ],
        "transport_mode": "bus"
    },
    {
        "id": "695c6db9-1a7e-469b-912e-deb71e1564eb",
        "name": "Trestenshult",
        "coordinates": [
            56.503594,
            14.686266
        ],
        "transport_mode": "bus"
    },
    {
        "id": "579be8bf-182f-4b46-908d-2df5709776f4",
        "name": "Anderslund",
        "coordinates": [
            56.415553,
            14.660078
        ],
        "transport_mode": "bus"
    },
    {
        "id": "ab08f3e9-d892-4460-ae36-791bf23c6bba",
        "name": "Slattesmåla",
        "coordinates": [
            56.428463,
            14.66922
        ],
        "transport_mode": "bus"
    },
    {
        "id": "7dde62df-f5a8-4dc3-aa1a-d2a13d12b354",
        "name": "Inlockahult",
        "coordinates": [
            56.444592,
            14.680949
        ],
        "transport_mode": "bus"
    },
    {
        "id": "2818656c-5dd0-449c-ab17-2d53b11904a6",
        "name": "Maskinvägen",
        "coordinates": [
            56.462085,
            14.686547
        ],
        "transport_mode": "bus"
    },
    {
        "id": "1047cd03-4c67-4406-b5b8-68aa3a39f50b",
        "name": "Torget",
        "coordinates": [
            56.465103,
            14.693597
        ],
        "transport_mode": "bus"
    },
    {
        "id": "be80f888-1cfd-424c-850c-d0d5105e573a",
        "name": "Sjölunden",
        "coordinates": [
            56.470408,
            14.693328
        ],
        "transport_mode": "bus"
    },
    {
        "id": "e724859b-1353-491d-95f2-46ca8e528505",
        "name": "Blidingsholm",
        "coordinates": [
            56.503053,
            14.722563
        ],
        "transport_mode": "bus"
    },
    {
        "id": "2db69a09-fa57-4690-ad89-fa2017196bc6",
        "name": "Långaryd",
        "coordinates": [
            56.512739,
            14.739635
        ],
        "transport_mode": "bus"
    },
    {
        "id": "6ecc6eac-a8b9-419a-a608-e59edcc94d38",
        "name": "Östra Älmehult",
        "coordinates": [
            56.523496,
            14.766891
        ],
        "transport_mode": "bus"
    },
    {
        "id": "3c50e9f6-1bbd-43c5-927d-962fbf871a8c",
        "name": "Hackekvarnsvägen",
        "coordinates": [
            56.527329,
            14.791714
        ],
        "transport_mode": "bus"
    },
    {
        "id": "7acf0e66-8fec-40f1-844a-0e3abb1403fd",
        "name": "Urshult kyrka",
        "coordinates": [
            56.529631,
            14.798673
        ],
        "transport_mode": "bus"
    },
    {
        "id": "06a9a120-4e0e-46ec-9170-a7e6e0e9b6a7",
        "name": "Stationsvägen Urshult",
        "coordinates": [
            56.531613,
            14.812744
        ],
        "transport_mode": "bus"
    },
    {
        "id": "f64ff447-1cb3-4602-8c9a-0c8f03b42c19",
        "name": "Ålshult",
        "coordinates": [
            56.525154,
            14.662263
        ],
        "transport_mode": "bus"
    },
    {
        "id": "3c6bae72-6608-4c1a-a509-a86be5d19487",
        "name": "Norraryd",
        "coordinates": [
            56.484054,
            14.696662
        ],
        "transport_mode": "bus"
    },
    {
        "id": "401e7f35-2ef1-416b-a8a4-a6d849847d64",
        "name": "Kråkebro",
        "coordinates": [
            56.492497,
            14.698738
        ],
        "transport_mode": "bus"
    },
    {
        "id": "fc8ce491-ae8d-4d20-b3fe-a0462732a9e3",
        "name": "Granö",
        "coordinates": [
            56.438073,
            14.675159
        ],
        "transport_mode": "bus"
    },
    {
        "id": "89ec8cf6-f0be-43ff-8946-cb3ced58f43e",
        "name": "Kuppersmåla",
        "coordinates": [
            56.449185,
            14.682289
        ],
        "transport_mode": "bus"
    },
    {
        "id": "12d0afd4-19b1-4b92-94f8-7194e1b6cf45",
        "name": "Älmehult",
        "coordinates": [
            56.537004,
            14.735231
        ],
        "transport_mode": "other"
    },
    {
        "id": "4f47e6da-2776-4de7-99a7-2c0419d6550a",
        "name": "Ekefors, Tingsryd",
        "coordinates": [
            56.543753,
            14.755736
        ],
        "transport_mode": "other"
    },
    {
        "id": "c7de1d3a-5eae-4969-8a57-e1d8f6746a66",
        "name": "Dunshult",
        "coordinates": [
            56.536422,
            14.782336
        ],
        "transport_mode": "other"
    },
    {
        "id": "b15d6ff8-fb08-46da-9fc5-2fd5c64612df",
        "name": "Stenfors",
        "coordinates": [
            56.458194,
            15.000046
        ],
        "transport_mode": "bus"
    },
    {
        "id": "fa2f98a5-e5e6-48e0-a355-b9c3d3bcea1e",
        "name": "Knällsberg",
        "coordinates": [
            56.441311,
            14.9785
        ],
        "transport_mode": "bus"
    },
    {
        "id": "9d6eef8c-396d-494f-8e8b-52078e442f07",
        "name": "Gäddeviksås vägskäl",
        "coordinates": [
            56.384648,
            14.902409
        ],
        "transport_mode": "bus"
    },
    {
        "id": "04228433-fe12-41a9-ad4a-19a67aefe99e",
        "name": "Örtvägen",
        "coordinates": [
            56.544798,
            14.118448
        ],
        "transport_mode": "bus"
    },
    {
        "id": "12d66e76-43f2-45d4-b35c-76c00afb4e25",
        "name": "Klöxhultskolan",
        "coordinates": [
            56.547508,
            14.119563
        ],
        "transport_mode": "bus"
    },
    {
        "id": "70a2039c-177e-4821-8936-45283e483183",
        "name": "Amundshylte",
        "coordinates": [
            56.515925,
            14.574326
        ],
        "transport_mode": "bus"
    },
    {
        "id": "3de4927c-611f-4344-b1f7-804931c26179",
        "name": "Karsemålavägen",
        "coordinates": [
            56.521369,
            14.523845
        ],
        "transport_mode": "bus"
    },
    {
        "id": "7c639531-7b77-4bca-8f73-0da6318c4192",
        "name": "Brändetorpsvägen",
        "coordinates": [
            56.521029,
            14.499809
        ],
        "transport_mode": "bus"
    },
    {
        "id": "882aee01-22e7-4de5-a508-0fe9c5c9e927",
        "name": "Häradsmåla",
        "coordinates": [
            56.520454,
            14.480363
        ],
        "transport_mode": "bus"
    },
    {
        "id": "db43ec04-ea3e-4bfc-a263-fcdc56ca329d",
        "name": "Bygdegården, Häradsbäck",
        "coordinates": [
            56.530051,
            14.463158
        ],
        "transport_mode": "bus"
    },
    {
        "id": "a749811e-2483-4a87-894e-de28ae8c4b59",
        "name": "Knoxhultsv. Häradsbäck",
        "coordinates": [
            56.529955,
            14.451021
        ],
        "transport_mode": "bus"
    },
    {
        "id": "bc481b24-0e72-4f0d-ad0b-a8a5f48c3753",
        "name": "Torbjörnahult",
        "coordinates": [
            56.527913,
            14.412578
        ],
        "transport_mode": "bus"
    },
    {
        "id": "5606fbb2-389f-452e-b9b8-211655c655f6",
        "name": "Uthövdan",
        "coordinates": [
            56.527565,
            14.400874
        ],
        "transport_mode": "bus"
    },
    {
        "id": "dcf07f70-8252-401b-9178-c774697f42c0",
        "name": "Barkhult",
        "coordinates": [
            56.526774,
            14.377193
        ],
        "transport_mode": "bus"
    },
    {
        "id": "ee5a9ca4-c7dc-4b94-8c03-71bc84e06c68",
        "name": "Sänneshult vägskäl",
        "coordinates": [
            56.535326,
            14.359429
        ],
        "transport_mode": "bus"
    },
    {
        "id": "34ead3af-9700-400f-aae9-fecf55e108be",
        "name": "Agnshult",
        "coordinates": [
            56.540295,
            14.351924
        ],
        "transport_mode": "bus"
    },
    {
        "id": "a34e06f3-4e3c-45f5-90ec-6fd4eb9f5828",
        "name": "Dammen",
        "coordinates": [
            56.545214,
            14.322843
        ],
        "transport_mode": "bus"
    },
    {
        "id": "c776a7c9-00b0-4b0c-9855-ac777982d097",
        "name": "Virestadvägen",
        "coordinates": [
            56.54847,
            14.310472
        ],
        "transport_mode": "bus"
    },