[
    {
        "id": "ace613a6-b9b3-41f2-b415-8e890e6273be",
        "name": "Malmö Centralstation",
        "coordinates": [
            55.608777,
            13.000216
        ],
        "transport_mode": "rail"
    },
    {
        "id": "207f4a58-092f-4f97-a40b-9240056ca270",
        "name": "Malmö Centralstation",
        "coordinates": [
            55.608777,
            13.000216
        ],
        "transport_mode": "bus"
    },
    {
        "id": "47372ec9-a0f4-4718-bcf3-b57744428d17",
        "name": "Malmö Centralstation",
        "coordinates": [
            55.608777,
            13.000216
        ],
        "transport_mode": "rail"
    },
    {
        "id": "5e693c9f-aaff-4886-ac9c-f3e4c179ed47",
        "name": "Hässleholm Centralstation",
        "coordinates": [
            56.15804,
            13.763268
        ],
        "transport_mode": "rail"
    },
    {
        "id": "71912af3-95b9-48ba-8d19-df71ab71aa9d",
        "name": "Hässleholm Centralstation",
        "coordinates": [
            56.15804,
            13.763268
        ],
        "transport_mode": "bus"
    },
    {
        "id": "b6e00d48-68de-4074-8d31-a3424356da5d",
        "name": "Hässleholm Centralstation",
        "coordinates": [
            56.15804,
            13.763268
        ],
        "transport_mode": "rail"
    },
    {
        "id": "8c4e81cd-a891-4ace-8ead-0ff40f22541b",
        "name": "Teckomatorp station",
        "coordinates": [
            55.870823,
            13.08574
        ],
        "transport_mode": "rail"
    },
    {
        "id": "8fee3698-28ef-43fe-912d-2db3504f63a9",
        "name": "Teckomatorp station",
        "coordinates": [
            55.870823,
            13.08574
        ],
        "transport_mode": "bus"
    },
    {
        "id": "1231c1b6-fb5d-48be-836d-b0d06474babf",
        "name": "Teckomatorp station",
        "coordinates": [
            55.870823,
            13.08574
        ],
        "transport_mode": "rail"
    },
    {
        "id": "f66789d1-8fab-4c79-a7a8-c94f72172482",
        "name": "Fabian Månssons väg",
        "coordinates": [
            56.112498,
            15.470072
        ],
        "transport_mode": "bus"
    },
    {
        "id": "9c977d6c-eac5-4739-9e06-394e0407ea16",
        "name": "Fabian Månssons väg",
        "coordinates": [
            56.112498,
            15.470072
        ],
        "transport_mode": "bus"
    },
    {
        "id": "feefcd9d-22ae-403f-b15d-c6a78cb50d05",
        "name": "Fabian Månssons väg",
        "coordinates": [
            56.112498,
            15.470072
        ],
        "transport_mode": "bus"
    },
    {
        "id": "52c61b10-b90f-42e6-9dd8-74924d8456c5",
        "name": "Perstorp station",
        "coordinates": [
            56.136456,
            13.397091
        ],
        "transport_mode": "rail"
    },
    {
        "id": "1b5863fa-49fb-45d5-a601-d3c6335ba1c0",
        "name": "Perstorp station",
        "coordinates": [
            56.136456,
            13.397091
        ],
        "transport_mode": "bus"
    },
    {
        "id": "01e575e1-0ae9-4db4-a123-8c101037879e",
        "name": "Perstorp station",
        "coordinates": [
            56.136456,
            13.397091
        ],
        "transport_mode": "rail"
    },
    {
        "id": "5fe73b6e-3c59-433c-bc6d-1f265c3de0b9",
        "name": "Ystad station",
        "coordinates": [
            55.427543,
            13.825779
        ],
        "transport_mode": "rail"
    },
    {
        "id": "bf64edce-155f-4ae5-b138-90d6d5afee33",
        "name": "Ystad station",
        "coordinates": [
            55.427543,
            13.825779
        ],
        "transport_mode": "bus"
    },
    {
        "id": "cba7abe7-e31e-4921-9fde-b782339f218a",
        "name": "Ystad station",
        "coordinates": [
            55.427543,
            13.825779
        ],
        "transport_mode": "rail"
    },
    {
        "id": "53a426a2-6c4a-498f-9010-e5a15acb17f7",
        "name": "Lönsboda busstation",
        "coordinates": [
            56.396506,
            14.320809
        ],
        "transport_mode": "bus"
    },
    {
        "id": "d737e6c5-e927-4ec6-8e2c-91ac97e920ce",
        "name": "Helsingborg Centralstation",
        "coordinates": [
            56.043055,
            12.69498
        ],
        "transport_mode": "rail"
    },
    {
        "id": "bb974bde-07ba-4f6f-a3d8-b071f35c154f",
        "name": "Helsingborg Centralstation",
        "coordinates": [
            56.043055,
            12.69498
        ],
        "transport_mode": "bus"
    },
    {
        "id": "c0a4dfa0-aa02-46d0-bb8f-7b91cf080d66",
        "name": "Helsingborg Centralstation",
        "coordinates": [
            56.043055,
            12.69498
        ],
        "transport_mode": "rail"
    },
    {
        "id": "1bdeba06-46a2-4cbc-b6c0-275c3d1e32a3",
        "name": "Älmhult station",
        "coordinates": [
            56.550786,
            14.137501
        ],
        "transport_mode": "rail"
    },
    {
        "id": "a0ab1383-087c-4b16-9966-13ad30aa2e61",
        "name": "Älmhult station",
        "coordinates": [
            56.550786,
            14.137501
        ],
        "transport_mode": "bus"
    },
    {
        "id": "29fad09c-0490-484a-8c3f-e87f860e1dab",
        "name": "Älmhult station",
        "coordinates": [
            56.550786,
            14.137501
        ],
        "transport_mode": "rail"
    },
    {
        "id": "a2665d62-b832-4c34-90b6-e393bd5dec93",
        "name": "Laholm Järnvägsstationen",
        "coordinates": [
            56.501928,
            12.999294
        ],
        "transport_mode": "bus"
    },
    {
        "id": "7de2b59c-728b-460f-b0c2-229636f4c2d6",
        "name": "Laholm Järnvägsstationen",
        "coordinates": [
            56.501928,
            12.999294
        ],
        "transport_mode": "bus"
    },
    {
        "id": "97323823-be42-404b-9dcd-a0406bbadf78",
        "name": "Laholm Järnvägsstationen",
        "coordinates": [
            56.501928,
            12.999294
        ],
        "transport_mode": "rail"
    },
    {
        "id": "c0320145-3bef-4db6-aee7-daf2d9c10ad4",
        "name": "Ängelholm station",
        "coordinates": [
            56.245732,
            12.854202
        ],
        "transport_mode": "rail"
    },
    {
        "id": "0f04959c-b6fc-4a9d-9fd0-6c50c984165b",
        "name": "Ängelholm station",
        "coordinates": [
            56.245732,
            12.854202
        ],
        "transport_mode": "bus"
    },
    {
        "id": "dae0e814-218b-4aba-b979-ce4c80a15711",
        "name": "Ängelholm station",
        "coordinates": [
            56.245732,
            12.854202
        ],
        "transport_mode": "rail"
    },
    {
        "id": "3785b236-250c-4c02-8131-2c16b52c892e",
        "name": "Ronneby resecentrum",
        "coordinates": [
            56.206431,
            15.283848
        ],
        "transport_mode": "bus"
    },
    {
        "id": "307bfd63-fbca-4c0b-9ebc-4041aa70fdf2",
        "name": "Ronneby resecentrum",
        "coordinates": [
            56.206431,
            15.283848
        ],
        "transport_mode": "bus"
    },
    {
        "id": "8e478954-84b0-437d-8d66-22c0bacede70",
        "name": "Ronneby resecentrum",
        "coordinates": [
            56.206431,
            15.283848
        ],
        "transport_mode": "bus"
    },
    {
        "id": "ac2e56b3-b7e0-45bd-9513-ba85c801727d",
        "name": "Karlshamns resecentrum",
        "coordinates": [
            56.175806,
            14.867536
        ],
        "transport_mode": "bus"
    },
    {
        "id": "d303eae8-59ca-4952-bb0b-e52fb8381ad9",
        "name": "Karlshamns resecentrum",
        "coordinates": [
            56.175806,
            14.867536
        ],
        "transport_mode": "bus"
    },
    {
        "id": "87915c6e-268d-4926-bb62-1c2c336fe578",
        "name": "Karlshamns resecentrum",
        "coordinates": [
            56.175806,
            14.867536
        ],
        "transport_mode": "bus"
    },
    {
        "id": "e6005c8a-f50a-4ca0-b8b0-06c4dff6ff8b",
        "name": "Sölvesborgs resecentrum",
        "coordinates": [
            56.050293,
            14.583849
        ],
        "transport_mode": "bus"
    },
    {
        "id": "edcdfaaa-9472-437e-b7bf-826ec542b605",
        "name": "Sölvesborgs resecentrum",
        "coordinates": [
            56.050293,
            14.583849
        ],
        "transport_mode": "bus"
    },
    {
        "id": "67e2d627-44a9-456c-859a-3651a20be22b",
        "name": "Sölvesborgs resecentrum",
        "coordinates": [
            56.050293,
            14.583849
        ],
        "transport_mode": "bus"
    },
    {
        "id": "15aac474-52e1-4453-902f-a4d6b87c91a2",
        "name": "Trelleborg C",
        "coordinates": [
            55.371691,
            13.160428
        ],
        "transport_mode": "rail"
    },
    {
        "id": "d581eff4-395c-4fa6-a8da-2cc660d2ee07",
        "name": "Trelleborg C",
        "coordinates": [
            55.371691,
            13.160428
        ],
        "transport_mode": "bus"
    },
    {
        "id": "a2a4a7a7-2496-49b6-88ae-e43557c3ed9e",
        "name": "Trelleborg C",
        "coordinates": [
            55.371691,
            13.160428
        ],
        "transport_mode": "rail"
    },
    {
        "id": "cd1e7a8b-0509-4877-8c01-eb35e6ff049d",
        "name": "Bjuv station",
        "coordinates": [
            56.083496,
            12.912574
        ],
        "transport_mode": "rail"
    },
    {
        "id": "2d5e786d-a94d-4d91-b48b-192e6e46893e",
        "name": "Bjuv station",
        "coordinates": [
            56.083496,
            12.912574
        ],
        "transport_mode": "bus"
    },
    {
        "id": "d18b2550-55fe-4add-b6d0-f572c65bfa96",
        "name": "Bjuv station",
        "coordinates": [
            56.083496,
            12.912574
        ],
        "transport_mode": "rail"
    },
    {
        "id": "65f2cde4-8264-46a9-ac98-a979f607d66c",
        "name": "Kallinge torg",
        "coordinates": [
            56.246024,
            15.286922
        ],
        "transport_mode": "bus"
    },
    {
        "id": "bdddd829-99ce-458b-b657-09cd9cd988e2",
        "name": "Kallinge torg",
        "coordinates": [
            56.246024,
            15.286922
        ],
        "transport_mode": "bus"
    },
    {
        "id": "5aa72b78-e837-41eb-8f66-daa6717ed8e6",
        "name": "Kallinge torg",
        "coordinates": [
            56.246024,
            15.286922
        ],
        "transport_mode": "bus"
    },
    {
        "id": "97a33df7-a5c1-4887-9b9c-3d8cab8ed0f4",
        "name": "Lund Centralstation",
        "coordinates": [
            55.706384,
            13.187015
        ],
        "transport_mode": "rail"
    },
    {
        "id": "a6dfdf90-9d5f-474f-b396-a8d694492792",
        "name": "Lund Centralstation",
        "coordinates": [
            55.706384,
            13.187015
        ],
        "transport_mode": "bus"
    },
    {
        "id": "2be03fe7-4b52-427e-95e7-7d1e99d471c5",
        "name": "Lund Centralstation",
        "coordinates": [
            55.706384,
            13.187015
        ],
        "transport_mode": "rail"
    },
    {
        "id": "e0e4e4d3-261c-4768-9c47-c6994c850a2f",
        "name": "Klippan station",
        "coordinates": [
            56.130959,
            13.128028
        ],
        "transport_mode": "bus"
    },
    {
        "id": "194eaeb3-92d3-4ef0-a739-b62c7bc3489c",
        "name": "Klippan station",
        "coordinates": [
            56.130959,
            13.128028
        ],
        "transport_mode": "bus"
    },
    {
        "id": "5268cf26-8603-4906-a36c-a4d113cd9fc7",
        "name": "Klippan station",
        "coordinates": [
            56.130959,
            13.128028
        ],
        "transport_mode": "rail"
    },
    {
        "id": "81ba5d29-340f-4a64-b00d-d2084b8af3e0",
        "name": "Ryd terminal",
        "coordinates": [
            56.461963,
            14.692959
        ],
        "transport_mode": "bus"
    },
    {
        "id": "ab0d368c-7105-47da-97ff-83a70bfc73f8",
        "name": "Strömsnäsbruk",
        "coordinates": [
            56.550581,
            13.731998
        ],
        "transport_mode": "bus"
    },
    {
        "id": "c210cc32-cd32-44ef-b56b-1eedf6471784",
        "name": "Skurup station",
        "coordinates": [
            55.480082,
            13.498144
        ],
        "transport_mode": "rail"
    },
    {
        "id": "7d58440b-57e3-433e-a656-c4d8b98beddc",
        "name": "Skurup station",
        "coordinates": [
            55.480082,
            13.498144
        ],
        "transport_mode": "bus"
    },
    {
        "id": "803bcad0-ac15-4b2f-900a-d983b7fbdf1f",
        "name": "Skurup station",
        "coordinates": [
            55.480082,
            13.498144
        ],
        "transport_mode": "rail"
    },
    {
        "id": "f8a2aeb7-9ae9-42ee-abfa-ee642a504a79",
        "name": "Bromölla station",
        "coordinates": [
            56.067266,
            14.479264
        ],
        "transport_mode": "rail"
    },
    {
        "id": "0b15cb94-d3b9-48d6-8117-269375969d24",
        "name": "Bromölla station",
        "coordinates": [
            56.067266,
            14.479264
        ],
        "transport_mode": "bus"
    },
    {
        "id": "455923f0-926f-4ac1-a76a-df94732f81ca",
        "name": "Bromölla station",
        "coordinates": [
            56.067266,
            14.479264
        ],
        "transport_mode": "rail"
    },
    {
        "id": "4beb043f-5101-4ece-8785-1a06b9326299",
        "name": "Åstorp station",
        "coordinates": [
            56.134302,
            12.949692
        ],
        "transport_mode": "rail"
    },
    {
        "id": "d73ce253-de6f-4277-9b89-ab287e41f879",
        "name": "Åstorp station",
        "coordinates": [
            56.134302,
            12.949692
        ],
        "transport_mode": "bus"
    },
    {
        "id": "5d9539c9-f7aa-43f0-b7f7-3e9694958131",
        "name": "Åstorp station",
        "coordinates": [
            56.134302,
            12.949692
        ],
        "transport_mode": "rail"
    },
    {
        "id": "668eaebe-38d0-4bb7-be25-6de1112faf58",
        "name": "Simrishamn station",
        "coordinates": [
            55.554461,
            14.352913
        ],
        "transport_mode": "rail"
    },
    {
        "id": "0db16cdd-02d0-4dec-9a44-b06feb0034b7",
        "name": "Simrishamn station",
        "coordinates": [
            55.554461,
            14.352913
        ],
        "transport_mode": "bus"
    },
    {
        "id": "a3f6b600-37ea-43af-96d9-11a796ec2d36",
        "name": "Simrishamn station",
        "coordinates": [
            55.554461,
            14.352913
        ],
        "transport_mode": "rail"
    },
    {
        "id": "b2c93076-70cd-4972-ad60-5b1acdf3d438",
        "name": "Vinslöv station",
        "coordinates": [
            56.104928,
            13.916541
        ],
        "transport_mode": "rail"
    },
    {
        "id": "3edfb6a2-4929-43ef-84e5-67fcc0579e2c",
        "name": "Vinslöv station",
        "coordinates": [
            56.104928,
            13.916541
        ],
        "transport_mode": "bus"
    },
    {
        "id": "52e45db7-fdc8-4cd1-8443-d64b36f48aeb",
        "name": "Vinslöv station",
        "coordinates": [
            56.104928,
            13.916541
        ],
        "transport_mode": "rail"
    },
    {
        "id": "30928119-ec69-4c37-9bb6-019355abf562",
        "name": "Höör station",
        "coordinates": [
            55.936896,
            13.540878
        ],
        "transport_mode": "rail"
    },
    {
        "id": "a04ec3b6-6970-4824-9398-3759bc81114f",
        "name": "Höör station",
        "coordinates": [
            55.936896,
            13.540878
        ],
        "transport_mode": "bus"
    },
    {
        "id": "9c155708-ec32-444d-96c3-c58eb89a54e5",
        "name": "Höör station",
        "coordinates": [
            55.936896,
            13.540878
        ],
        "transport_mode": "rail"
    },
    {
        "id": "af1bb967-bc43-4380-89cb-fbe0297b14ec",
        "name": "Svängsta centrum",
        "coordinates": [
            56.263288,
            14.770938
        ],
        "transport_mode": "bus"
    },
    {
        "id": "854d5774-ba9f-488a-a9e3-1b205ea99e78",
        "name": "Kristianstad Centralstation",
        "coordinates": [
            56.031875,
            14.151364
        ],
        "transport_mode": "rail"
    },
    {
        "id": "2803a82d-d974-4dde-a9ea-a26d646e655f",
        "name": "Kristianstad Centralstation",
        "coordinates": [
            56.031875,
            14.151364
        ],
        "transport_mode": "bus"
    },
    {
        "id": "d43bcce1-c4d5-4e1f-9edf-1a82d3dde416",
        "name": "Kristianstad Centralstation",
        "coordinates": [
            56.031875,
            14.151364
        ],
        "transport_mode": "rail"
    },
    {
        "id": "58d2fc9f-982e-42a4-b8db-69cb09ea33a7",
        "name": "Landskrona Drottninggatan",
        "coordinates": [
            55.867896,
            12.830868
        ],
        "transport_mode": "bus"
    },
    {
        "id": "13b29d15-3687-4ff8-9ab6-396818986733",
        "name": "Karlskrona Centralstation",
        "coordinates": [
            56.166671,
            15.585368
        ],
        "transport_mode": "rail"
    },
    {
        "id": "a5cbcc9a-a590-4061-aee9-d4b6796047b5",
        "name": "Karlskrona Centralstation",
        "coordinates": [
            56.166671,
            15.585368
        ],
        "transport_mode": "bus"
    },
    {
        "id": "44c9a7e9-754f-4fad-98d2-f43042844c2e",
        "name": "Karlskrona Centralstation",
        "coordinates": [
            56.166671,
            15.585368
        ],
        "transport_mode": "rail"
    },
    {
        "id": "5462a6bc-48d5-41b7-8c15-bf228d30932e",
        "name": "Markaryd station",
        "coordinates": [
            56.457996,
            13.593725
        ],
        "transport_mode": "bus"
    },
    {
        "id": "b8b1a828-9550-4365-b458-b996f1bbe8b4",
        "name": "Markaryd station",
        "coordinates": [
            56.457996,
            13.593725
        ],
        "transport_mode": "bus"
    },
    {
        "id": "4fbb7ece-7688-45f7-ba59-20a5499ea3a0",
        "name": "Markaryd station",
        "coordinates": [
            56.457996,
            13.593725
        ],
        "transport_mode": "rail"
    },
    {
        "id": "86152fc8-400d-4243-987b-edac918e48df",
        "name": "Markaryd station",
        "coordinates": [
            56.457996,
            13.593725
        ],
        "transport_mode": "bus"
    },
    {
        "id": "62def220-c3b6-4b66-8f7a-461cbb55adec",
        "name": "Markaryd station",
        "coordinates": [
            56.457996,
            13.593725
        ],
        "transport_mode": "bus"
    },
    {
        "id": "f7a87705-bbb0-4f06-8c6a-64ad1ad80151",
        "name": "Eslöv station",
        "coordinates": [
            55.837448,
            13.305171
        ],
        "transport_mode": "rail"
    },
    {
        "id": "9410a0a3-4f57-47b8-a01f-180646c527bb",
        "name": "Eslöv station",
        "coordinates": [
            55.837448,
            13.305171
        ],
        "transport_mode": "bus"
    },
    {
        "id": "9dd97077-76f2-4515-ae73-fe0e3fe33dfc",
        "name": "Eslöv station",
        "coordinates": [
            55.837448,
            13.305171
        ],
        "transport_mode": "rail"
    },
    {
        "id": "7b8bc1f8-a0c0-4c0f-b297-bdf0ef6fd6ec",
        "name": "Tyringe station",
        "coordinates": [
            56.15959,
            13.599035
        ],
        "transport_mode": "rail"
    },
    {
        "id": "29b79995-9549-4535-9484-2bc796f32472",
        "name": "Tyringe station",
        "coordinates": [
            56.15959,
            13.599035
        ],
        "transport_mode": "bus"
    },
    {
        "id": "393e1cca-57f2-4f4b-b8b1-798b490e315c",
        "name": "Tyringe station",
        "coordinates": [
            56.15959,
            13.599035
        ],
        "transport_mode": "rail"
    },
    {
        "id": "3da4e4a8-41c1-4965-a874-686a2f8e5a7d",
        "name": "Osby station",
        "coordinates": [
            56.380586,
            13.995503
        ],
        "transport_mode": "rail"
    },
    {
        "id": "2fc9d730-5144-45fe-928f-2beafb0f0aec",
        "name": "Osby station",
        "coordinates": [
            56.380586,
            13.995503
        ],
        "transport_mode": "bus"
    },
    {
        "id": "1220ad17-0379-4d5c-940e-97d6ac463e9c",
        "name": "Osby station",
        "coordinates": [
            56.380586,
            13.995503
        ],
        "transport_mode": "rail"
    },
    {
        "id": "976e55ba-c72f-4c8d-bc69-b63d2418c147",
        "name": "Tomelilla station",
        "coordinates": [
            55.546528,
            13.949163
        ],
        "transport_mode": "rail"
    },
    {
        "id": "8f4dcca4-843a-4f6b-a86c-b7ea80137df4",
        "name": "Tomelilla station",
        "coordinates": [
            55.546528,
            13.949163
        ],
        "transport_mode": "bus"
    },
    {
        "id": "8da3d362-ad42-4b82-9e4d-faae0ab972c6",
        "name": "Tomelilla station",
        "coordinates": [
            55.546528,
            13.949163
        ],
        "transport_mode": "rail"
    },
    {
        "id": "94f16620-b497-4347-a8b1-5e0e69d48e54",
        "name": "Jämjö centrum",
        "coordinates": [
            56.191967,
            15.835047
        ],
        "transport_mode": "bus"
    },
    {
        "id": "cf547138-ab51-46be-a24d-6e44d961da86",
        "name": "Broby busstation",
        "coordinates": [
            56.253662,
            14.075195
        ],
        "transport_mode": "bus"
    },
    {
        "id": "fa9ce21d-1ea8-4c16-85db-b42e5d8248a9",
        "name": "Åhus Järnvägsgatan",
        "coordinates": [
            55.927021,
            14.302792
        ],
        "transport_mode": "bus"
    },
    {
        "id": "8be2a2d6-30f1-4b78-a05f-a056fe8e1171",
        "name": "Kivik torget",
        "coordinates": [
            55.685116,
            14.225589
        ],
        "transport_mode": "bus"
    },
    {
        "id": "04255c26-6e4c-47fd-9f44-31bec931099c",
        "name": "Brösarp bussterminal",
        "coordinates": [
            55.727803,
            14.096774
        ],
        "transport_mode": "bus"
    },
    {
        "id": "f2243250-d50c-4bb9-a548-9e00a33e1658",
        "name": "Degeberga Skaddevägen",
        "coordinates": [
            55.837502,
            14.090144
        ],
        "transport_mode": "bus"
    },
    {
        "id": "4094830c-0a25-4e4f-9e28-d576ed520143",
        "name": "Bräkne Hoby",
        "coordinates": [
            56.230799,
            15.115634
        ],
        "transport_mode": "bus"
    },
    {
        "id": "66cf42b7-eda3-4a72-bd32-a08b152e821a",
        "name": "Bräkne Hoby",
        "coordinates": [
            56.230799,
            15.115634
        ],
        "transport_mode": "bus"
    },
    {
        "id": "6e88d564-2f1b-4767-870e-304de4b75772",
        "name": "Bräkne Hoby",
        "coordinates": [
            56.230799,
            15.115634
        ],
        "transport_mode": "rail"
    },
    {
        "id": "c4128ab3-a2a6-4236-89e7-9f4df7de4861",
        "name": "Tingsryd terminal",
        "coordinates": [
            56.523997,
            14.975528
        ],
        "transport_mode": "bus"
    },
    {
        "id": "268d7cb5-41e6-4cdf-b221-83039d2afb7c",
        "name": "Svedala station",
        "coordinates": [
            55.506943,
            13.233022
        ],
        "transport_mode": "rail"
    },
    {
        "id": "5f9accdc-d35c-493f-b27f-1a792e2c0ee6",
        "name": "Svedala station",
        "coordinates": [
            55.506943,
            13.233022
        ],
        "transport_mode": "bus"
    },
    {
        "id": "79f3fdfb-01ca-4bab-8821-8d709f98266f",
        "name": "Svedala station",
        "coordinates": [
            55.506943,
            13.233022
        ],
        "transport_mode": "rail"
    },
    {
        "id": "44df17c1-5f9d-4ee4-afcb-2e25c8132eab",
        "name": "Rydsgård station",
        "coordinates": [
            55.474067,
            13.588783
        ],
        "transport_mode": "rail"
    },
    {
        "id": "2fc47002-d795-47dd-a737-6f1c67a84500",
        "name": "Rydsgård station",
        "coordinates": [
            55.474067,
            13.588783
        ],
        "transport_mode": "bus"
    },
    {
        "id": "f3eca69f-6403-4bac-a326-486694232445",
        "name": "Rydsgård station",
        "coordinates": [
            55.474067,
            13.588783
        ],
        "transport_mode": "rail"
    },
    {
        "id": "f351d6fe-cc3f-4aeb-833e-0394b618c9dc",
        "name": "Vittsjö station",
        "coordinates": [
            56.342112,
            13.663264
        ],
        "transport_mode": "rail"
    },
    {
        "id": "2ff9e7fa-24d7-4ff9-ac27-e2a97c4290c3",
        "name": "Vittsjö station",
        "coordinates": [
            56.342112,
            13.663264
        ],
        "transport_mode": "bus"
    },
    {
        "id": "50e13e99-f55f-4421-837f-a402f8f3176f",
        "name": "Vittsjö station",
        "coordinates": [
            56.342112,
            13.663264
        ],
        "transport_mode": "rail"
    },
    {
        "id": "53dc34c6-6575-42c6-92f0-53b245909118",
        "name": "Ljungbyhed busstation",
        "coordinates": [
            56.075324,
            13.233566
        ],
        "transport_mode": "bus"
    },
    {
        "id": "e2d94aff-a984-4224-818f-1aecec99580a",
        "name": "Olofströms station",
        "coordinates": [
            56.278973,
            14.520329
        ],
        "transport_mode": "bus"
    },
    {
        "id": "5aefd748-4f35-4f0e-aadc-cd3865c33b3d",
        "name": "Tollarp biblioteket",
        "coordinates": [
            55.934328,
            13.974643
        ],
        "transport_mode": "bus"
    },
    {
        "id": "182098ab-bcb1-43c9-a01d-24a1520cd42f",
        "name": "Kvarnen",
        "coordinates": [
            56.112955,
            15.681575
        ],
        "transport_mode": "bus"
    },
    {
        "id": "9aec1092-b0eb-4bfb-aaf9-1e47875f06c0",
        "name": "Klågerup busstation",
        "coordinates": [
            55.59757,
            13.260224
        ],
        "transport_mode": "bus"
    },
    {
        "id": "e4bf3f2c-c488-49b3-89e9-fb8b10a8ea65",
        "name": "Bad Gastein",
        "coordinates": [
            0.0,
            0.0
        ],
        "transport_mode": "rail"
    },
    {
        "id": "2230274d-c1f1-471f-a728-2eac0acf8d5b",
        "name": "Jämshög",
        "coordinates": [
            56.240667,
            14.530839
        ],
        "transport_mode": "bus"
    },
    {
        "id": "8667668d-2e2a-4253-b28b-4a5a3ee6bc7e",
        "name": "Smygehamn Ängavägen",
        "coordinates": [
            55.345402,
            13.377708
        ],
        "transport_mode": "bus"
    },
    {
        "id": "c9c0c400-e27a-4f3e-b24b-8ffdd76bd8cc",
        "name": "Jenbach",
        "coordinates": [
            0.0,
            0.0
        ],
        "transport_mode": "rail"
    },
    {
        "id": "b28855e1-119c-45ad-8813-14a8bd8e66db",
        "name": "Påarp station",
        "coordinates": [
            56.029357,
            12.817214
        ],
        "transport_mode": "rail"
    },
    {
        "id": "68a84c0a-d1a8-49d3-92cf-c64379716337",
        "name": "Påarp station",
        "coordinates": [
            56.029357,
            12.817214
        ],
        "transport_mode": "bus"
    },
    {
        "id": "0c35025f-cf80-45ed-a67b-ad2915ab0660",
        "name": "Påarp station",
        "coordinates": [
            56.029357,
            12.817214
        ],
        "transport_mode": "rail"
    },
    {
        "id": "f211d2f4-d564-4c80-901a-f1549106e99f",
        "name": "Rödeby centrum",
        "coordinates": [
            56.260694,
            15.618051
        ],
        "transport_mode": "bus"
    },
    {
        "id": "16db15df-0e53-4da6-9465-33bc365043d4",
        "name": "Skånes Fagerhult kyrka",
        "coordinates": [
            56.36848,
            13.470006
        ],
        "transport_mode": "bus"
    },
    {
        "id": "41c0d773-2c8e-491c-a399-cf9e7a2eeb21",
        "name": "Kyrkhult",
        "coordinates": [
            56.357116,
            14.587137
        ],
        "transport_mode": "bus"
    },
    {
        "id": "0d682daa-821d-47f0-b283-5ee0cbfae642",
        "name": "Örkelljunga busstation",
        "coordinates": [
            56.283185,
            13.281349
        ],
        "transport_mode": "bus"
    },
    {
        "id": "965efd8c-ad24-4629-a2e5-81c6b17fb10a",
        "name": "Nättraby hörnet",
        "coordinates": [
            56.206877,
            15.530721
        ],
        "transport_mode": "bus"
    },
    {
        "id": "032cb946-b056-410c-96e2-4a5b279a6567",
        "name": "Bjärnum busstation",
        "coordinates": [
            56.292205,
            13.71019
        ],
        "transport_mode": "bus"
    },
    {
        "id": "95011a33-f769-484a-8590-6540579b5cf7",
        "name": "Bergkvara busstation",
        "coordinates": [
            56.394659,
            16.0653
        ],
        "transport_mode": "bus"
    },
    {
        "id": "02127c88-eaa4-4339-953d-b9b112edae9a",
        "name": "Asarum Storgatan",
        "coordinates": [
            56.208993,
            14.833818
        ],
        "transport_mode": "bus"
    },
    {
        "id": "93a6d859-2e59-4551-9e5d-9acbf0c523fd",
        "name": "Hälleviks hamn",
        "coordinates": [
            56.012282,
            14.69804
        ],
        "transport_mode": "bus"
    },
    {
        "id": "efde4d57-fa01-4a22-8b85-3fc0b37cf59d",
        "name": "Mjällby centrum",
        "coordinates": [
            56.045711,
            14.678033
        ],
        "transport_mode": "bus"
    },
    {
        "id": "517552c3-2bbe-4c0b-b02d-4af727957d1e",
        "name": "Hörby busstation",
        "coordinates": [
            55.85641,
            13.670567
        ],
        "transport_mode": "bus"
    },
    {
        "id": "0d921a54-65b5-4c6e-983b-66b491229a07",
        "name": "Brömsebro",
        "coordinates": [
            56.29852,
            16.000816
        ],
        "transport_mode": "bus"
    },
    {
        "id": "d7ddfcfb-d773-41e5-91d9-0a2d2e0e603e",
        "name": "Lyckeby centrum",
        "coordinates": [
            56.198685,
            15.654731
        ],
        "transport_mode": "bus"
    },
    {
        "id": "b774d865-38f0-4178-ad1e-81b48f236305",
        "name": "Förslöv Sandbäcksvägen",
        "coordinates": [
            56.347913,
            12.816695
        ],
        "transport_mode": "bus"
    },
    {
        "id": "58d1428a-4bfc-4bae-b081-0d0a858af20f",
        "name": "Jonstorp centrum",
        "coordinates": [
            56.227086,
            12.674149
        ],
        "transport_mode": "bus"
    },
    {
        "id": "12529bfc-db82-4b74-93d8-3117eb9a6329",
        "name": "Skillinge busstation",
        "coordinates": [
            55.473407,
            14.278388
        ],
        "transport_mode": "bus"
    },
    {
        "id": "f255eb75-0555-4dde-8501-b45394756607",
        "name": "Gärsnäs station",
        "coordinates": [
            55.546221,
            14.181036
        ],
        "transport_mode": "rail"
    },
    {
        "id": "f1d94c44-2310-4dc3-9bb5-2eaa213f9494",
        "name": "Gärsnäs station",
        "coordinates": [
            55.546221,
            14.181036
        ],
        "transport_mode": "bus"
    },
    {
        "id": "cdf1c751-706c-4457-8792-b7db248cac98",
        "name": "Gärsnäs station",
        "coordinates": [
            55.546221,
            14.181036
        ],
        "transport_mode": "rail"
    },
    {
        "id": "aa675c3f-1b7e-4907-b402-8b213312d2d8",
        "name": "Vejbystrand centrum",
        "coordinates": [
            56.315075,
            12.769224
        ],
        "transport_mode": "bus"
    },
    {
        "id": "6d6b13b1-016f-42ec-9c77-53d3e64bbcfa",
        "name": "Arild bussplatsen",
        "coordinates": [
            56.273153,
            12.577159
        ],
        "transport_mode": "bus"
    },
    {
        "id": "4f5666f6-7d62-422e-82a2-4b1e7aeec836",
        "name": "Bara Banvägen",
        "coordinates": [
            55.579644,
            13.191055
        ],
        "transport_mode": "bus"
    },
    {
        "id": "79e76e5f-dfbe-45e4-804c-f8b699095ddd",
        "name": "Ekeby Flamman",
        "coordinates": [
            55.992159,
            12.972904
        ],
        "transport_mode": "bus"
    },
    {
        "id": "b2ddfe7b-ea97-4f4d-ab1d-09b6952f2ab2",
        "name": "Brantevik",
        "coordinates": [
            55.51394,
            14.34771
        ],
        "transport_mode": "bus"
    },
    {
        "id": "3051b6be-99dd-4724-be0f-310f48387f46",
        "name": "Södra Möckleby",
        "coordinates": [
            56.356463,
            16.420154
        ],
        "transport_mode": "bus"
    },
    {
        "id": "22f0ba9d-4991-42e5-b2b4-735d6b4ca2cc",
        "name": "Holmsjö station",
        "coordinates": [
            56.421735,
            15.542441
        ],
        "transport_mode": "rail"
    },
    {
        "id": "fee6bcfe-74dc-49ac-a13a-03d415cd5074",
        "name": "Holmsjö station",
        "coordinates": [
            56.421735,
            15.542441
        ],
        "transport_mode": "bus"
    },
    {
        "id": "b0f73e31-9706-41c0-9cc6-f25c852ae1e8",
        "name": "Holmsjö station",
        "coordinates": [
            56.421735,
            15.542441
        ],
        "transport_mode": "rail"
    },
    {
        "id": "8ccbbf6c-2bdd-41ff-92b8-c8db72cd0214",
        "name": "Stångby station",
        "coordinates": [
            55.751113,
            13.200171
        ],
        "transport_mode": "rail"
    },
    {
        "id": "a61f5363-fdc0-4507-bce5-abc62a2d5cab",
        "name": "Stångby station",
        "coordinates": [
            55.751113,
            13.200171
        ],
        "transport_mode": "bus"
    },
    {
        "id": "d2fcc19c-3f22-44ec-8309-a4e64fd39a9c",
        "name": "Stångby station",
        "coordinates": [
            55.751113,
            13.200171
        ],
        "transport_mode": "rail"
    },
    {
        "id": "7ce6b04d-f840-42c9-8b27-ebfb6ab44264",
        "name": "Mörbylånga busstation",
        "coordinates": [
            56.527846,
            16.376318
        ],
        "transport_mode": "bus"
    },
    {
        "id": "5d4ca536-6867-4a18-9ba2-a68ac20d1526",
        "name": "Mörbylånga busstation",
        "coordinates": [
            56.527846,
            16.376318
        ],
        "transport_mode": "bus"
    },
    {
        "id": "93b8cf84-6820-438d-bb6e-73a54eb344eb",
        "name": "Mörbylånga busstation",
        "coordinates": [
            56.527846,
            16.376318
        ],
        "transport_mode": "bus"
    },
    {
        "id": "115ca547-731e-48a4-9b7e-1890a4ba2b1b",
        "name": "Torsås torg",
        "coordinates": [
            56.412178,
            15.997491
        ],
        "transport_mode": "bus"
    },
    {
        "id": "7ac788e5-c26f-4ea7-9189-09ffc0cbe911",
        "name": "Billeberga station",
        "coordinates": [
            55.883761,
            12.995391
        ],
        "transport_mode": "rail"
    },
    {
        "id": "beaf942c-9fc0-4106-82eb-42ca74e2b6b0",
        "name": "Billeberga station",
        "coordinates": [
            55.883761,
            12.995391
        ],
        "transport_mode": "bus"
    },
    {
        "id": "8c48fa7d-eed5-45e4-9176-420fab3d7f08",
        "name": "Billeberga station",
        "coordinates": [
            55.883761,
            12.995391
        ],
        "transport_mode": "rail"
    },
    {
        "id": "51d9f787-a6c0-4798-a609-720a7072b2a1",
        "name": "Billesholm station",
        "coordinates": [
            56.056299,
            12.976951
        ],
        "transport_mode": "rail"
    },
    {
        "id": "f89d748a-ee6a-461b-be59-050a7d7c211f",
        "name": "Billesholm station",
        "coordinates": [
            56.056299,
            12.976951
        ],
        "transport_mode": "bus"
    },
    {
        "id": "19791470-19a2-4895-9344-19f38fa07144",
        "name": "Billesholm station",
        "coordinates": [
            56.056299,
            12.976951
        ],
        "transport_mode": "rail"
    },
    {
        "id": "0a7c9870-778e-40e5-be6a-c4613adcd2fb",
        "name": "Bjärred centrum",
        "coordinates": [
            55.722579,
            13.027383
        ],
        "transport_mode": "bus"
    },
    {
        "id": "3d4afeeb-b1bf-4943-b5d5-df8a6f488877",
        "name": "Burlöv station",
        "coordinates": [
            55.640808,
            13.080157
        ],
        "transport_mode": "rail"
    },
    {
        "id": "38900cc9-96f9-442d-8278-96e27eaa8725",
        "name": "Burlöv station",
        "coordinates": [
            55.640808,
            13.080157
        ],
        "transport_mode": "bus"
    },
    {
        "id": "ff9e1999-06f0-4f4b-aca4-b91412009b8e",
        "name": "Burlöv station",
        "coordinates": [
            55.640808,
            13.080157
        ],
        "transport_mode": "rail"
    },
    {
        "id": "c1013a13-2bd8-406f-afec-8fb94d994433",
        "name": "Dalby busstation",
        "coordinates": [
            55.664498,
            13.346419
        ],
        "transport_mode": "bus"
    },
    {
        "id": "0d2ffe39-c448-47af-8453-3548f9bccd0c",
        "name": "Dösjebro station",
        "coordinates": [
            55.823084,
            13.031853
        ],
        "transport_mode": "rail"
    },
    {
        "id": "a4b45403-48ef-422d-b7e0-4e4fd2101c85",
        "name": "Dösjebro station",
        "coordinates": [
            55.823084,
            13.031853
        ],
        "transport_mode": "bus"
    },
    {
        "id": "7858c2e7-b8f6-498b-98ba-1ed79e25bff9",
        "name": "Dösjebro station",
        "coordinates": [
            55.823084,
            13.031853
        ],
        "transport_mode": "rail"
    },
    {
        "id": "320f5a84-abb1-4483-bb76-bd8ea9fe3f08",
        "name": "Falsterbo Strandbad",
        "coordinates": [
            55.394088,
            12.851237
        ],
        "transport_mode": "bus"
    },
    {
        "id": "11fbce58-685d-4e5f-ae94-ee59327ada87",
        "name": "Lund Gunnesbo station",
        "coordinates": [
            55.726523,
            13.167866
        ],
        "transport_mode": "rail"
    },
    {
        "id": "b8edfa98-77e7-47f7-85d7-090c1ebd8ef4",
        "name": "Lund Gunnesbo station",
        "coordinates": [
            55.726523,
            13.167866
        ],
        "transport_mode": "bus"
    },
    {
        "id": "e1821f9e-daaa-4f56-b9e9-dcfc3fa174e8",
        "name": "Lund Gunnesbo station",
        "coordinates": [
            55.726523,
            13.167866
        ],
        "transport_mode": "rail"
    },
    {
        "id": "f52ad43b-0b47-4552-b63d-f55aedf13b6f",
        "name": "Hjärup station",
        "coordinates": [
            55.673822,
            13.136595
        ],
        "transport_mode": "rail"
    },
    {
        "id": "16539c73-4a6a-41af-b3c3-e9229ebf0b89",
        "name": "Hjärup station",
        "coordinates": [
            55.673822,
            13.136595
        ],
        "transport_mode": "bus"
    },
    {
        "id": "e1ed3fb5-fbc1-4cfd-a956-60ee1cc38c6f",
        "name": "Hjärup station",
        "coordinates": [
            55.673822,
            13.136595
        ],
        "transport_mode": "rail"
    },
    {
        "id": "a1f726e3-eb5f-4daf-a8a4-5640b3653528",
        "name": "Höganäs Busstorget",
        "coordinates": [
            56.201057,
            12.558366
        ],
        "transport_mode": "bus"
    },
    {
        "id": "854d4f08-ff36-4e5e-97ef-7845936a4fcd",
        "name": "Höllviken centrum",
        "coordinates": [
            55.418596,
            12.95268
        ],
        "transport_mode": "bus"
    },
    {
        "id": "628baee9-55dc-4d65-b30e-58ab518034de",
        "name": "Kävlinge station",
        "coordinates": [
            55.79459,
            13.111332
        ],
        "transport_mode": "rail"
    },
    {
        "id": "f9a59fe9-51a8-48f9-a2db-f2b4c0de82fc",
        "name": "Kävlinge station",
        "coordinates": [
            55.79459,
            13.111332
        ],
        "transport_mode": "bus"
    },
    {
        "id": "499190b1-3230-4ae6-987c-320d75b2f8f7",
        "name": "Kävlinge station",
        "coordinates": [
            55.79459,
            13.111332
        ],
        "transport_mode": "rail"
    },
    {
        "id": "34312ffb-a0d2-4144-b7fb-2360be23b285",
        "name": "Köpingebro station",
        "coordinates": [
            55.456284,
            13.934278
        ],
        "transport_mode": "rail"
    },
    {
        "id": "fff7be31-745c-4330-a9dd-e97edd7d8cfb",
        "name": "Köpingebro station",
        "coordinates": [
            55.456284,
            13.934278
        ],
        "transport_mode": "bus"
    },
    {
        "id": "71e8b4f9-862f-4165-bb10-389726492a7a",
        "name": "Köpingebro station",
        "coordinates": [
            55.456284,
            13.934278
        ],
        "transport_mode": "rail"
    },
    {
        "id": "8c817f78-ae23-4ee2-8d9f-cae25fccea87",
        "name": "Lomma busstation",
        "coordinates": [
            55.67387,
            13.069032
        ],
        "transport_mode": "bus"
    },
    {
        "id": "401f0c9e-f2fa-49b0-865a-295697a91c8e",
        "name": "Mölle busstation",
        "coordinates": [
            56.282,
            12.499109
        ],
        "transport_mode": "bus"
    },
    {
        "id": "437f7fa6-e303-4699-9653-bf52152b925c",
        "name": "Sjöbo Busstation",
        "coordinates": [
            55.630719,
            13.700967
        ],
        "transport_mode": "bus"
    },
    {
        "id": "435c6da2-3261-4437-b37d-4d376a243d6d",
        "name": "Skanör centrum",
        "coordinates": [
            55.411503,
            12.844171
        ],
        "transport_mode": "bus"
    },
    {
        "id": "6105b0bf-8c6d-47c2-a36f-1d3ef8e01c3d",
        "name": "Staffanstorp Storgatan",
        "coordinates": [
            55.640793,
            13.206075
        ],
        "transport_mode": "bus"
    },
    {
        "id": "a44757cb-9676-4e9e-9510-8326d46ac17c",
        "name": "Stehag station",
        "coordinates": [
            55.900309,
            13.393174
        ],
        "transport_mode": "rail"
    },
    {
        "id": "52e6acbf-d3a9-47ec-85ac-8ad2d368a20e",
        "name": "Stehag station",
        "coordinates": [
            55.900309,
            13.393174
        ],
        "transport_mode": "bus"
    },
    {
        "id": "8e471703-f8e3-4ea9-8288-cb1836136ddb",
        "name": "Stehag station",
        "coordinates": [
            55.900309,
            13.393174
        ],
        "transport_mode": "rail"
    },
    {
        "id": "9211bcc6-b0b6-4680-b32f-8651f5c0612a",
        "name": "Svalöv Centrum",
        "coordinates": [
            55.912951,
            13.10637
        ],
        "transport_mode": "bus"
    },
    {
        "id": "9d404ef4-147d-4f1d-831b-daf3cf7fac1e",
        "name": "S Sandby busstation",
        "coordinates": [
            55.717237,
            13.346829
        ],
        "transport_mode": "bus"
    },
    {
        "id": "66c87d05-8e3a-478b-aa40-ed4fdd05d7d4",
        "name": "Veberöd centrum",
        "coordinates": [
            55.633315,
            13.493413
        ],
        "transport_mode": "bus"
    },
    {
        "id": "639b8732-98a5-4bc4-ba8c-939de316d0c9",
        "name": "Vellinge centrum",
        "coordinates": [
            55.472978,
            13.020445
        ],
        "transport_mode": "bus"
    },
    {
        "id": "54bcce15-a719-493d-8121-cf8a75504448",
        "name": "Viken centrum",
        "coordinates": [
            56.146508,
            12.579248
        ],
        "transport_mode": "bus"
    },
    {
        "id": "4895a22e-aa23-4068-9468-972ab6b72f35",
        "name": "Åkarp station",
        "coordinates": [
            55.655956,
            13.106487
        ],
        "transport_mode": "rail"
    },
    {
        "id": "e4795d1a-162c-4b2f-80bd-94f1248b5a66",
        "name": "Åkarp station",
        "coordinates": [
            55.655956,
            13.106487
        ],
        "transport_mode": "bus"
    },
    {
        "id": "aa02c287-8511-487f-9022-d2862307fb1d",
        "name": "Åkarp station",
        "coordinates": [
            55.655956,
            13.106487
        ],
        "transport_mode": "rail"
    },
    {
        "id": "c40b5bb2-58f1-4142-a1e2-082b24eb09f2",
        "name": "Örtofta station",
        "coordinates": [
            55.778652,
            13.243736
        ],
        "transport_mode": "rail"
    },
    {
        "id": "9eee345d-4455-4a7b-9710-50ff3991602f",
        "name": "Örtofta station",
        "coordinates": [
            55.778652,
            13.243736
        ],
        "transport_mode": "bus"
    },
    {
        "id": "959fdfe0-677e-45e1-a60d-67c0b8b585f8",
        "name": "Örtofta station",
        "coordinates": [
            55.778652,
            13.243736
        ],
        "transport_mode": "rail"
    },
    {
        "id": "864ce649-a656-443c-a1eb-405692688046",
        "name": "Baskemölla Gladsaxvägen",
        "coordinates": [
            55.590477,
            14.312069
        ],
        "transport_mode": "bus"
    },
    {
        "id": "0af8bcb7-1c04-4fca-9e4f-8b84232a9efe",
        "name": "Ottenby gård",
        "coordinates": [
            56.234466,
            16.41609
        ],
        "transport_mode": "bus"
    },
    {
        "id": "c660a7cf-eccb-4f14-a4d4-027133a130ff",
        "name": "Abbekås",
        "coordinates": [
            55.394086,
            13.59369
        ],
        "transport_mode": "bus"
    },
    {
        "id": "6fc98422-8133-42d1-b4f6-7df4a1a0bf73",
        "name": "Arkelstorp Affären",
        "coordinates": [
            56.173219,
            14.282974
        ],
        "transport_mode": "bus"
    },
    {
        "id": "1cabe66c-697f-477a-9c57-c3465043e633",
        "name": "Backaryd",
        "coordinates": [
            56.347766,
            15.153211
        ],
        "transport_mode": "bus"
    },
    {
        "id": "2af60a4c-a511-4d1e-a48e-c9012fb61628",
        "name": "Borrby busstation",
        "coordinates": [
            55.456286,
            14.177465
        ],
        "transport_mode": "bus"
    },
    {
        "id": "777615c3-2e4a-42c4-a5b9-13a3e3e3152e",
        "name": "Bårslöv Snödroppegatan",
        "coordinates": [
            56.009072,
            12.811131
        ],
        "transport_mode": "bus"
    },
    {
        "id": "db28b004-0a71-441e-8fed-7ce3708b42f0",
        "name": "Fågelmara",
        "coordinates": [
            56.259991,
            15.949018
        ],
        "transport_mode": "bus"
    },
    {
        "id": "03732adf-c569-4dcb-b8c1-6a7cd51e2d39",
        "name": "Glimåkra busstation",
        "coordinates": [
            56.30518,
            14.135638
        ],
        "transport_mode": "bus"
    },
    {
        "id": "a29e9672-7a8e-433c-b0b8-9c168b647be3",
        "name": "Glumslöv Ålabodsvägen",
        "coordinates": [
            55.941501,
            12.812013
        ],
        "transport_mode": "bus"
    },
    {
        "id": "e6fbb3f6-cf76-4cb5-b131-55466db2ea89",
        "name": "Grönhögen",
        "coordinates": [
            56.268585,
            16.401412
        ],
        "transport_mode": "bus"
    },
    {
        "id": "ff68796c-c12a-44c0-b885-b4fd159f27c2",
        "name": "Hallabro",
        "coordinates": [
            56.389502,
            15.102547
        ],
        "transport_mode": "bus"
    },
    {
        "id": "78d557ff-e062-4505-a9cb-702cc27ba66b",
        "name": "Hanaskog Busstation",
        "coordinates": [
            56.158637,
            14.094007
        ],
        "transport_mode": "bus"
    },
    {
        "id": "6927606d-b7a8-4f77-b216-d6aa55abd29d",
        "name": "Hittarp Sundsliden",
        "coordinates": [
            56.096887,
            12.643564
        ],
        "transport_mode": "bus"
    },
    {
        "id": "e1626258-f71f-4a15-a57d-45c90db842b7",
        "name": "Immeln",
        "coordinates": [
            56.203403,
            14.246536
        ],
        "transport_mode": "bus"
    },
    {
        "id": "a379247b-32e7-494b-940a-a6131161d25b",
        "name": "Anderslöv torget",
        "coordinates": [
            55.438242,
            13.317278
        ],
        "transport_mode": "bus"
    },
    {
        "id": "a3a5fa12-bfe2-465a-b046-5603cab26006",
        "name": "Beddingestrand Granhyddan",
        "coordinates": [
            55.364055,
            13.43075
        ],
        "transport_mode": "bus"
    },
    {
        "id": "8a84aaa8-bdfa-4e77-b3d9-77e3f215b2a2",
        "name": "Hanö",
        "coordinates": [
            56.009998,
            14.836386
        ],
        "transport_mode": "water"
    },
    {
        "id": "4068070b-aa7b-4431-9968-89f4c1530d90",
        "name": "Kåseberga",
        "coordinates": [
            55.386741,
            14.065093
        ],
        "transport_mode": "bus"
    },
    {
        "id": "d7d5afc8-ee93-4ff9-a5cd-09eb40bd6cac",
        "name": "Nybrostrand badet",
        "coordinates": [
            55.432208,
            13.947299
        ],
        "transport_mode": "bus"
    },
    {
        "id": "04441630-6666-44d1-b3c8-d7ec3d20c032",
        "name": "Ven Bäckviken",
        "coordinates": [
            55.903824,
            12.722206
        ],
        "transport_mode": "bus"
    },
    {
        "id": "3df83a5f-7393-4142-8fea-a4c2984051d5",
        "name": "Ven Bäckviken",
        "coordinates": [
            55.903824,
            12.722206
        ],
        "transport_mode": "bus"
    },
    {
        "id": "81fb7629-289c-410a-a6de-cb7f6f9d054a",
        "name": "Ven Bäckviken",
        "coordinates": [
            55.903824,
            12.722206
        ],
        "transport_mode": "water"
    },
    {
        "id": "44a7b6e3-44f4-47a5-b29f-c40449f50ad3",
        "name": "Ljunghusen Storvägen",
        "coordinates": [
            55.405538,
            12.920899
        ],
        "transport_mode": "bus"
    },
    {
        "id": "d673efc6-c034-40f8-afb0-60335caae5bf",
        "name": "Lunnarp station",
        "coordinates": [
            55.540966,
            14.043374
        ],
        "transport_mode": "rail"
    },
    {
        "id": "75776a1a-b6cf-436b-8d32-ca97cff52823",
        "name": "Löderup centrum",
        "coordinates": [
            55.438136,
            14.113064
        ],
        "transport_mode": "bus"
    },
    {
        "id": "0fefd31d-c882-4c0d-99e1-279df7451e59",
        "name": "Lövestad jvstn",
        "coordinates": [
            55.653605,
            13.891425
        ],
        "transport_mode": "bus"
    },
    {
        "id": "039b3e42-f696-44bd-9c90-6f3e695737fc",
        "name": "Mellbystrand",
        "coordinates": [
            56.514331,
            12.949817
        ],
        "transport_mode": "bus"
    },
    {
        "id": "6fb0e0f0-7448-4307-8d75-c795ab241097",
        "name": "Mörarp station",
        "coordinates": [
            56.056128,
            12.873066
        ],
        "transport_mode": "rail"
    },
    {
        "id": "ce2b0366-a93c-4586-a45c-219684feae2a",
        "name": "Mörarp station",
        "coordinates": [
            56.056128,
            12.873066
        ],
        "transport_mode": "bus"
    },
    {
        "id": "a3c97905-df5b-4de9-a438-50a41c1c2020",
        "name": "Mörarp station",
        "coordinates": [
            56.056128,
            12.873066
        ],
        "transport_mode": "rail"
    },
    {
        "id": "7b80f026-dda8-4b51-9445-590798302ffb",
        "name": "Nogersunds hamn",
        "coordinates": [
            56.005378,
            14.738154
        ],
        "transport_mode": "water"
    },
    {
        "id": "3e3bc855-10ae-4e78-8eb2-408fa83e35ff",
        "name": "Ramlösa station",
        "coordinates": [
            56.023359,
            12.727951
        ],
        "transport_mode": "rail"
    },
    {
        "id": "395fc65f-2cb3-4d62-814a-dceb221566b6",
        "name": "Ramlösa station",
        "coordinates": [
            56.023359,
            12.727951
        ],
        "transport_mode": "bus"
    },
    {
        "id": "0c614137-a3b9-4060-ac70-f29f3e7e64d1",
        "name": "Ramlösa station",
        "coordinates": [
            56.023359,
            12.727951
        ],
        "transport_mode": "rail"
    },
    {
        "id": "9e7da14b-282d-4777-9130-8239a17a850e",
        "name": "Röstånga busstation",
        "coordinates": [
            56.003283,
            13.289605
        ],
        "transport_mode": "bus"
    },
    {
        "id": "16067945-bce2-44ec-8ba0-ce62e4e7c587",
        "name": "Sibbhult busstation",
        "coordinates": [
            56.267603,
            14.201165
        ],
        "transport_mode": "bus"
    },
    {
        "id": "13800cad-f8c4-42ee-a2dc-72d2b1d2c88b",
        "name": "Skåne Tranås",
        "coordinates": [
            55.614553,
            13.996757
        ],
        "transport_mode": "bus"
    },
    {
        "id": "19ec2f22-398b-4cd9-b57d-b1699ff4e072",
        "name": "Smedstorp station",
        "coordinates": [
            55.549644,
            14.116718
        ],
        "transport_mode": "rail"
    },
    {
        "id": "e3758d0f-be09-4b36-9f5b-42e6db45d44f",
        "name": "Smedstorp station",
        "coordinates": [
            55.549644,
            14.116718
        ],
        "transport_mode": "bus"
    },
    {
        "id": "ddffe520-1a94-4c38-ac4c-3b012cc5af3d",
        "name": "Smedstorp station",
        "coordinates": [
            55.549644,
            14.116718
        ],
        "transport_mode": "rail"
    },
    {
        "id": "1f0b839a-4814-4585-8807-2ed78b27efb5",
        "name": "Sösdala station",
        "coordinates": [
            56.036488,
            13.68043
        ],
        "transport_mode": "rail"
    },
    {
        "id": "e23ff33b-12b4-4a4d-8064-85a2c2478273",
        "name": "Sösdala station",
        "coordinates": [
            56.036488,
            13.68043
        ],
        "transport_mode": "bus"
    },
    {
        "id": "77b68605-9390-4aa1-9fbf-d0965068d50b",
        "name": "Sösdala station",
        "coordinates": [
            56.036488,
            13.68043
        ],
        "transport_mode": "rail"
    },
    {
        "id": "b0e0ad45-545b-4f63-9ec2-d94c2239a424",
        "name": "Tjärö",
        "coordinates": [
            56.170682,
            15.050225
        ],
        "transport_mode": "water"
    },
    {
        "id": "5223448c-feed-4ca5-8b39-f0fe31970eca",
        "name": "Torekov busstation",
        "coordinates": [
            56.424126,
            12.629809
        ],
        "transport_mode": "bus"
    },
    {
        "id": "4a998974-eb91-4e0c-91c0-af893f364266",
        "name": "Tärnö",
        "coordinates": [
            56.121246,
            14.963744
        ],
        "transport_mode": "water"
    },
    {
        "id": "0c1ba824-b050-48e5-9f3b-0c5651e95251",
        "name": "Klostergården",
        "coordinates": [
            55.6943762240635,
            13.171161860883926
        ],
        "transport_mode": "rail"
    },
    {
        "id": "b3e42eb9-793e-4816-9948-5e499e9af855",
        "name": "Vilshult",
        "coordinates": [
            56.358208,
            14.481762
        ],
        "transport_mode": "bus"
    },
    {
        "id": "a4803291-ed1e-4bc3-a10a-1ffae547e30f",
        "name": "Vissefjärda station",
        "coordinates": [
            56.538551,
            15.581517
        ],
        "transport_mode": "bus"
    },
    {
        "id": "11236658-2713-40de-b092-90bb14319feb",
        "name": "Vissefjärda station",
        "coordinates": [
            56.538551,
            15.581517
        ],
        "transport_mode": "bus"
    },
    {
        "id": "b5cc9dfb-b197-415c-ac60-e2d9294e1d51",
        "name": "Vissefjärda station",
        "coordinates": [
            56.538551,
            15.581517
        ],
        "transport_mode": "rail"
    },
    {
        "id": "40950785-9e3f-4e5d-a60d-5ee28e95bdfc",
        "name": "Vissefjärda station",
        "coordinates": [
            56.538551,
            15.581517
        ],
        "transport_mode": "bus"
    },
    {
        "id": "481dc9b3-27a9-42e9-9541-1049d5f82405",
        "name": "Ballingslöv station",
        "coordinates": [
            56.214123,
            13.848319
        ],
        "transport_mode": "rail"
    },
    {
        "id": "69d40da4-3aad-44a1-bd8b-44b5bb796bf9",
        "name": "Ballingslöv station",
        "coordinates": [
            56.214123,
            13.848319
        ],
        "transport_mode": "bus"
    },
    {
        "id": "f8d06f23-138f-4a97-9163-7c722abd2e85",
        "name": "Ballingslöv station",
        "coordinates": [
            56.214123,
            13.848319
        ],
        "transport_mode": "rail"
    },
    {
        "id": "c5ff1c29-8ab8-4846-ac84-000cf4818ee2",
        "name": "Emmaljunga Hultahusvägen",
        "coordinates": [
            56.398538,
            13.649434
        ],
        "transport_mode": "bus"
    },
    {
        "id": "f86931e7-d2fa-4e02-9635-a5a941e72a33",
        "name": "Barkåkra Valhall Park",
        "coordinates": [
            56.284895,
            12.8401
        ],
        "transport_mode": "bus"
    },
    {
        "id": "058dcf31-f11d-472c-9209-9fd16fdab6be",
        "name": "Kyrkhultsv, Fridafors",
        "coordinates": [
            56.407995,
            14.656612
        ],
        "transport_mode": "bus"
    },
    {
        "id": "4e6254c2-77f3-4a79-9308-b3f6688965ee",
        "name": "Genarp busstation",
        "coordinates": [
            55.599409,
            13.400181
        ],
        "transport_mode": "bus"
    },
    {
        "id": "0c09a845-af19-48ae-8182-6a449daabf15",
        "name": "Grevie Förslövsvägen",
        "coordinates": [
            56.389569,
            12.77669
        ],
        "transport_mode": "bus"
    },
    {
        "id": "0c176b4f-be8f-44fd-bb4e-cd99d51a1f68",
        "name": "Hov Kyrkan",
        "coordinates": [
            56.434759,
            12.729335
        ],
        "transport_mode": "bus"
    },
    {
        "id": "6839a598-32d6-4a8c-a40a-4c437860dc64",
        "name": "Hurva E22",
        "coordinates": [
            55.791678,
            13.442173
        ],
        "transport_mode": "bus"
    },
    {
        "id": "f0ac40db-40ed-4d7a-8c66-7776bb217d86",
        "name": "Hörja skolan",
        "coordinates": [
            56.206401,
            13.594878
        ],
        "transport_mode": "bus"
    },
    {
        "id": "29cc0786-a593-4d6a-bf2a-05755ccd86a2",
        "name": "Postvägen, Konga",
        "coordinates": [
            56.494891,
            15.119837
        ],
        "transport_mode": "bus"
    },
    {
        "id": "2ad046fb-fe98-473b-8003-9047951ded21",
        "name": "Kågeröd station",
        "coordinates": [
            55.998623,
            13.083465
        ],
        "transport_mode": "rail"
    },
    {
        "id": "f62290c6-f520-45a2-9bf7-36cfbcdd505a",
        "name": "Kågeröd station",
        "coordinates": [
            55.998623,
            13.083465
        ],
        "transport_mode": "bus"
    },
    {
        "id": "404b4fa0-f28f-4ecc-8e54-c38ce170de65",
        "name": "Kågeröd station",
        "coordinates": [
            55.998623,
            13.083465
        ],
        "transport_mode": "rail"
    },
    {
        "id": "da046520-d293-4868-a4ef-009b8da1f5ab",
        "name": "Malmö Persborg",
        "coordinates": [
            55.580641,
            13.028953
        ],
        "transport_mode": "rail"
    },
    {
        "id": "bc7ca506-a93f-4f77-9fa8-61cd45524db0",
        "name": "Malmö Persborg",
        "coordinates": [
            55.580641,
            13.028953
        ],
        "transport_mode": "bus"
    },
    {
        "id": "de398094-c33b-41ee-afa7-baf845a164ad",
        "name": "Malmö Persborg",
        "coordinates": [
            55.580641,
            13.028953
        ],
        "transport_mode": "rail"
    },
    {
        "id": "9ac99e5d-514c-49e4-b4fc-dcf2598db81a",
        "name": "Marieholm centrum",
        "coordinates": [
            55.863376,
            13.154102
        ],
        "transport_mode": "bus"
    },
    {
        "id": "667db0b7-4d7d-48fd-aebd-23f342481084",
        "name": "Munka Ljungby Lindagatan",
        "coordinates": [
            56.257613,
            12.962444
        ],
        "transport_mode": "bus"
    },
    {
        "id": "4e2230ce-4355-4f12-a3cd-1d3d646118b4",
        "name": "Ränneslöv",
        "coordinates": [
            56.453157,
            13.076117
        ],
        "transport_mode": "bus"
    },
    {
        "id": "e4426fd2-94cf-465a-9048-97e3aa34b8c9",
        "name": "Röke kyrka",
        "coordinates": [
            56.234634,
            13.521586
        ],
        "transport_mode": "bus"
    },
    {
        "id": "710341f6-d287-4ce9-820d-11f4d719329d",
        "name": "Stoby Mäster Olofs väg",
        "coordinates": [
            56.17651,
            13.82962
        ],
        "transport_mode": "bus"
    },
    {
        "id": "cc956b6b-d6d1-4b4a-ac0a-00046dc0b534",
        "name": "Valje Sissebäck",
        "coordinates": [
            56.063189,
            14.54796
        ],
        "transport_mode": "bus"
    },
    {
        "id": "3f66807f-3fec-4220-aa35-94be930fd2f2",
        "name": "Vallberga",
        "coordinates": [
            56.467717,
            13.024171
        ],
        "transport_mode": "bus"
    },
    {
        "id": "efaa11cc-bdbc-4bb5-a827-c6f6c303d4fb",
        "name": "Vollsjö Piraten",
        "coordinates": [
            55.702021,
            13.785715
        ],
        "transport_mode": "bus"
    },
    {
        "id": "4b96ed55-3f69-48b1-9a86-b8a19654c947",
        "name": "Vånga Kyrkan",
        "coordinates": [
            56.180502,
            14.374514
        ],
        "transport_mode": "bus"
    },
    {
        "id": "06ad92a8-ed57-4e5b-aba4-ad87c5eb6afc",
        "name": "Våxtorp",
        "coordinates": [
            56.41656,
            13.121646
        ],
        "transport_mode": "bus"
    },
    {
        "id": "f683742e-d998-4101-ba3f-1306fe828913",
        "name": "Västra Karup affären",
        "coordinates": [
            56.410983,
            12.745649
        ],
        "transport_mode": "bus"
    },
    {
        "id": "06e0ad93-efd3-41bb-86c2-c787e5079629",
        "name": "Össjö skola",
        "coordinates": [
            56.228023,
            13.036383
        ],
        "transport_mode": "bus"
    },
    {
        "id": "5555c269-aa37-4e43-8d79-dbfae734e475",
        "name": "Österslöv Kyrkan",
        "coordinates": [
            56.099365,
            14.249733
        ],
        "transport_mode": "bus"
    },
    {
        "id": "085e2e27-c21c-4dc5-814c-07069c43b98b",
        "name": "Östra Ljungby Busstationen",
        "coordinates": [
            56.189774,
            13.065358
        ],
        "transport_mode": "bus"
    },
    {
        "id": "1d734d7a-6573-4853-a2fb-0c10812ce1e8",
        "name": "Bergåsa station",
        "coordinates": [
            56.182631,
            15.601347
        ],
        "transport_mode": "bus"
    },
    {
        "id": "bd0d0480-f6a3-48ee-9a31-a7d77051dc34",
        "name": "Bergåsa station",
        "coordinates": [
            56.182631,
            15.601347
        ],
        "transport_mode": "bus"
    },
    {
        "id": "a48601d8-5f73-4418-a0ff-200030ee24c2",
        "name": "Bergåsa station",
        "coordinates": [
            56.182631,
            15.601347
        ],
        "transport_mode": "rail"
    },
    {
        "id": "9277417a-ceef-493a-a54f-cd3e54a4c402",
        "name": "Vallkärra stationsby",
        "coordinates": [
            55.746377,
            13.145212
        ],
        "transport_mode": "bus"
    },
    {
        "id": "e95bfb20-b468-4fe3-ae55-53f35140dae9",
        "name": "Maria station",
        "coordinates": [
            56.075547,
            12.710597
        ],
        "transport_mode": "rail"
    },
    {
        "id": "9e91b33b-ca45-4d5f-8f03-99af541ba29b",
        "name": "Maria station",
        "coordinates": [
            56.075547,
            12.710597
        ],
        "transport_mode": "bus"
    },
    {
        "id": "69f0ac81-7e8b-4437-ae69-92d8afe69ece",
        "name": "Maria station",
        "coordinates": [
            56.075547,
            12.710597
        ],
        "transport_mode": "rail"
    },
    {
        "id": "a863cc10-d1d3-4fe1-8cc6-9b34ac6a7f3b",
        "name": "Ödåkra station",
        "coordinates": [
            56.105547,
            12.745332
        ],
        "transport_mode": "rail"
    },
    {
        "id": "a1b78ca7-d71b-4fb1-a2dd-3c166cfff24a",
        "name": "Ödåkra station",
        "coordinates": [
            56.105547,
            12.745332
        ],
        "transport_mode": "bus"
    },
    {
        "id": "f7655e43-28a9-4d82-9666-52eb3bfa657f",
        "name": "Ödåkra station",
        "coordinates": [
            56.105547,
            12.745332
        ],
        "transport_mode": "rail"
    },
    {
        "id": "9496edb6-1daf-4b42-b095-9cf7b3f46450",
        "name": "Kattarp station",
        "coordinates": [
            56.143911,
            12.781217
        ],
        "transport_mode": "rail"
    },
    {
        "id": "983f217e-4ad6-462b-ae96-f15a3cde0ff2",
        "name": "Kattarp station",
        "coordinates": [
            56.143911,
            12.781217
        ],
        "transport_mode": "bus"
    },
    {
        "id": "cc5bf12a-29f7-455c-892d-50a15af8e6ef",
        "name": "Kattarp station",
        "coordinates": [
            56.143911,
            12.781217
        ],
        "transport_mode": "rail"
    },
    {
        "id": "3f37eae6-1040-46a9-af2f-31941aab675f",
        "name": "Malmö Svågertorp",
        "coordinates": [
            55.548283,
            12.991168
        ],
        "transport_mode": "rail"
    },
    {
        "id": "f3234994-989e-4149-b206-2b039829deab",
        "name": "Malmö Svågertorp",
        "coordinates": [
            55.548283,
            12.991168
        ],
        "transport_mode": "bus"
    },
    {
        "id": "94f972ed-d509-4ae3-be3d-55378a96c2a3",
        "name": "Malmö Svågertorp",
        "coordinates": [
            55.548283,
            12.991168
        ],
        "transport_mode": "rail"
    },
    {
        "id": "13f759a5-ab98-4271-88ec-22bed34c69ca",
        "name": "Häljarp station",
        "coordinates": [
            55.860986,
            12.91143
        ],
        "transport_mode": "rail"
    },
    {
        "id": "1e4c96c8-46c1-4eb7-8c66-3f98d358b3ea",
        "name": "Häljarp station",
        "coordinates": [
            55.860986,
            12.91143
        ],
        "transport_mode": "bus"
    },
    {
        "id": "d02695ba-97f0-4dec-8977-f4531296d079",
        "name": "Häljarp station",
        "coordinates": [
            55.860986,
            12.91143
        ],
        "transport_mode": "rail"
    },
    {
        "id": "b44c9eed-8b04-4402-ab3d-0d87b44b72ef",
        "name": "Malmö Fosieby",
        "coordinates": [
            55.560214,
            13.030031
        ],
        "transport_mode": "bus"
    },
    {
        "id": "53811b0a-e8dc-4a4f-99fa-653739e0a6a4",
        "name": "Landskrona station",
        "coordinates": [
            55.879012,
            12.856617
        ],
        "transport_mode": "rail"
    },
    {
        "id": "37c29b16-b04f-44d9-9e3a-e5f2c7eccf4d",
        "name": "Landskrona station",
        "coordinates": [
            55.879012,
            12.856617
        ],
        "transport_mode": "bus"
    },
    {
        "id": "f91ac9e9-74e8-41cd-a6c6-9301a0b7ff8f",
        "name": "Landskrona station",
        "coordinates": [
            55.879012,
            12.856617
        ],
        "transport_mode": "rail"
    },
    {
        "id": "01109180-2dd2-43fe-8e43-0fee7103c196",
        "name": "Gantofta station",
        "coordinates": [
            55.99036,
            12.805109
        ],
        "transport_mode": "rail"
    },
    {
        "id": "b6fddc25-c293-42f6-b530-06a52e31908b",
        "name": "Gantofta station",
        "coordinates": [
            55.99036,
            12.805109
        ],
        "transport_mode": "bus"
    },
    {
        "id": "4ee57ee3-6989-4db4-8e1b-923fe4cd49df",
        "name": "Gantofta station",
        "coordinates": [
            55.99036,
            12.805109
        ],
        "transport_mode": "rail"
    },
    {
        "id": "78712a8d-aa85-43f9-ac06-ba247a926239",
        "name": "Tågarp station",
        "coordinates": [
            55.926572,
            12.951816
        ],
        "transport_mode": "rail"
    },
    {
        "id": "a88a4719-d900-4bd6-82f4-ce4a91c1c363",
        "name": "Tågarp station",
        "coordinates": [
            55.926572,
            12.951816
        ],
        "transport_mode": "bus"
    },
    {
        "id": "b68c24e4-c001-4e58-8d2d-afcee4cd9d8d",
        "name": "Tågarp station",
        "coordinates": [
            55.926572,
            12.951816
        ],
        "transport_mode": "rail"
    },
    {
        "id": "c53edce7-39c4-445f-b721-5ec49f18acc8",
        "name": "Rydebäck station",
        "coordinates": [
            55.965836,
            12.784114
        ],
        "transport_mode": "rail"
    },
    {
        "id": "8ae151aa-ebf3-43ef-b53f-db6ff87548f0",
        "name": "Rydebäck station",
        "coordinates": [
            55.965836,
            12.784114
        ],
        "transport_mode": "bus"
    },
    {
        "id": "dcfd2631-901d-4c49-b5af-245a4fd29e06",
        "name": "Rydebäck station",
        "coordinates": [
            55.965836,
            12.784114
        ],
        "transport_mode": "rail"
    },
    {
        "id": "ced74810-ec5b-4b83-9086-8059acb83c1c",
        "name": "Glumslöv station",
        "coordinates": [
            55.944573,
            12.813441
        ],
        "transport_mode": "rail"
    },
    {
        "id": "536cbbd6-e404-4787-a307-29b41e394d56",
        "name": "Glumslöv station",
        "coordinates": [
            55.944573,
            12.813441
        ],
        "transport_mode": "bus"
    },
    {
        "id": "2c43d955-6955-4848-89ea-8f9f46e6caac",
        "name": "Glumslöv station",
        "coordinates": [
            55.944573,
            12.813441
        ],
        "transport_mode": "rail"
    },
    {
        "id": "589b5216-67a5-4860-8284-bb7f4856afd9",
        "name": "Malmö Hyllie",
        "coordinates": [
            55.562792,
            12.975828
        ],
        "transport_mode": "rail"
    },
    {
        "id": "e245f05e-9c67-440e-844a-1178169f98db",
        "name": "Malmö Hyllie",
        "coordinates": [
            55.562792,
            12.975828
        ],
        "transport_mode": "bus"
    },
    {
        "id": "a5671c2f-010e-46e2-b0d8-77bc8088960e",
        "name": "Malmö Hyllie",
        "coordinates": [
            55.562792,
            12.975828
        ],
        "transport_mode": "rail"
    },
    {
        "id": "150b03c2-064b-4c3c-82a5-f6c23968a704",
        "name": "Malmö Triangeln",
        "coordinates": [
            55.594285,
            13.000711
        ],
        "transport_mode": "bus"
    },
    {
        "id": "c1b189f6-4390-439d-9179-7949d764a67f",
        "name": "Malmö Triangeln",
        "coordinates": [
            55.594285,
            13.000711
        ],
        "transport_mode": "bus"
    },
    {
        "id": "848bc7e1-5563-42d9-b6ae-24245dcbb08c",
        "name": "Malmö Triangeln",
        "coordinates": [
            55.594285,
            13.000711
        ],
        "transport_mode": "bus"
    },
    {
        "id": "0861c54b-0a45-4419-8c06-0a624a848622",
        "name": "Malmö Triangeln",
        "coordinates": [
            55.594285,
            13.000711
        ],
        "transport_mode": "rail"
    },
    {
        "id": "7ad22b21-e7a9-4596-ab21-2176fc9db5c7",
        "name": "Båstad station",
        "coordinates": [
            56.431787,
            12.906894
        ],
        "transport_mode": "rail"
    },
    {
        "id": "1955de4c-f3d3-4964-a37a-1edb724020c1",
        "name": "Båstad station",
        "coordinates": [
            56.431787,
            12.906894
        ],
        "transport_mode": "bus"
    },
    {
        "id": "392c0548-b9c3-44e9-a2a8-1888efbaba55",
        "name": "Båstad station",
        "coordinates": [
            56.431787,
            12.906894
        ],
        "transport_mode": "rail"
    },
    {
        "id": "b66df501-6fc0-44a8-a59e-249f5edb7c4a",
        "name": "Killeberg station",
        "coordinates": [
            56.475159,
            14.098624
        ],
        "transport_mode": "rail"
    },
    {
        "id": "7d5979fd-2f87-4960-b37f-4a8bb66d1634",
        "name": "Killeberg station",
        "coordinates": [
            56.475159,
            14.098624
        ],
        "transport_mode": "bus"
    },
    {
        "id": "b3c96ce6-f436-4ee6-aaa7-c2637d792465",
        "name": "Killeberg station",
        "coordinates": [
            56.475159,
            14.098624
        ],
        "transport_mode": "rail"
    },
    {
        "id": "2add20e6-25aa-46ce-bc7a-05167cbbe79d",
        "name": "Önnestad station",
        "coordinates": [
            56.060572,
            14.029126
        ],
        "transport_mode": "rail"
    },
    {
        "id": "14b9ce7f-3b4a-4cb4-a4c8-b25c4f633e31",
        "name": "Önnestad station",
        "coordinates": [
            56.060572,
            14.029126
        ],
        "transport_mode": "bus"
    },
    {
        "id": "52cdc1db-9db0-4f41-aa30-3d2123f98664",
        "name": "Önnestad station",
        "coordinates": [
            56.060572,
            14.029126
        ],
        "transport_mode": "rail"
    },
    {
        "id": "e298d670-6a4a-4d2a-ab51-24f2db824dbe",
        "name": "Fjälkinge station",
        "coordinates": [
            56.043356,
            14.279687
        ],
        "transport_mode": "rail"
    },
    {
        "id": "a03e3563-45b0-4bdd-adff-e9c7daa35ce1",
        "name": "Fjälkinge station",
        "coordinates": [
            56.043356,
            14.279687
        ],
        "transport_mode": "bus"
    },
    {
        "id": "509355da-4db1-4fa6-8837-f606a27d4883",
        "name": "Fjälkinge station",
        "coordinates": [
            56.043356,
            14.279687
        ],
        "transport_mode": "rail"
    },
    {
        "id": "5fd347f0-f6f0-45da-b7d4-f46571b3c2e6",
        "name": "Bjärnum station",
        "coordinates": [
            56.291439,
            13.706872
        ],
        "transport_mode": "rail"
    },
    {
        "id": "896e4191-b102-49ce-98cb-46bcc8299bc8",
        "name": "Bjärnum station",
        "coordinates": [
            56.291439,
            13.706872
        ],
        "transport_mode": "rail"
    },
    {
        "id": "4178d1f2-e438-4eaf-a095-dcd96dd22c15",
        "name": "Bjärnum station",
        "coordinates": [
            56.291439,
            13.706872
        ],
        "transport_mode": "bus"
    },
    {
        "id": "7be79a14-44ac-4237-a61c-d187c87be0a1",
        "name": "Kvidinge station",
        "coordinates": [
            56.137171,
            13.045386
        ],
        "transport_mode": "rail"
    },
    {
        "id": "f1507ea1-69f0-48ad-84fb-8ca59e27ec1d",
        "name": "Kvidinge station",
        "coordinates": [
            56.137171,
            13.045386
        ],
        "transport_mode": "bus"
    },
    {
        "id": "42ecf8bc-b95b-43e1-8241-4480250032db",
        "name": "Kvidinge station",
        "coordinates": [
            56.137171,
            13.045386
        ],
        "transport_mode": "rail"
    },
    {
        "id": "f070ac03-be33-440f-8718-2805687421cb",
        "name": "Tjörnarp station",
        "coordinates": [
            56.00023,
            13.629966
        ],
        "transport_mode": "rail"
    },
    {
        "id": "743b6fab-2086-4650-a087-a699af0c98e9",
        "name": "Tjörnarp station",
        "coordinates": [
            56.00023,
            13.629966
        ],
        "transport_mode": "bus"
    },
    {
        "id": "aa07298c-e75e-4d10-a2a7-f8106eeddc86",
        "name": "Tjörnarp station",
        "coordinates": [
            56.00023,
            13.629966
        ],
        "transport_mode": "rail"
    },
    {
        "id": "820f1700-0680-4b70-bbcb-30fd55f6c9d4",
        "name": "Förslöv station",
        "coordinates": [
            56.354836,
            12.801263
        ],
        "transport_mode": "rail"
    },
    {
        "id": "a30da502-24c8-495c-a82d-40ad912b74f4",
        "name": "Förslöv station",
        "coordinates": [
            56.354836,
            12.801263
        ],
        "transport_mode": "bus"
    },
    {
        "id": "f6d066aa-a663-40b7-9cba-eed018598532",
        "name": "Förslöv station",
        "coordinates": [
            56.354836,
            12.801263
        ],
        "transport_mode": "rail"
    },
    {
        "id": "1186e887-b208-4a0f-808e-abae991bd446",
        "name": "Barkåkra station",
        "coordinates": [
            56.287997,
            12.828227
        ],
        "transport_mode": "rail"
    },
    {
        "id": "8da24308-d91f-4a18-a100-f5eb3bddad15",
        "name": "Barkåkra station",
        "coordinates": [
            56.287997,
            12.828227
        ],
        "transport_mode": "bus"
    },
    {
        "id": "da7dc9f6-10ac-4a12-96ca-b40738fe74bf",
        "name": "Barkåkra station",
        "coordinates": [
            56.287997,
            12.828227
        ],
        "transport_mode": "rail"
    },
    {
        "id": "08025a0a-6e73-4b7a-b7b2-378434100f53",
        "name": "Östra Grevie station",
        "coordinates": [
            55.467061,
            13.133416
        ],
        "transport_mode": "rail"
    },
    {
        "id": "22fd2649-f4ba-4324-a19c-f8fa368e91d4",
        "name": "Östra Grevie station",
        "coordinates": [
            55.467061,
            13.133416
        ],
        "transport_mode": "bus"
    },
    {
        "id": "7cc15352-fd1f-49fc-9da2-dd80060d465a",
        "name": "Östra Grevie station",
        "coordinates": [
            55.467061,
            13.133416
        ],
        "transport_mode": "rail"
    },
    {
        "id": "8f68298a-e4c3-4265-a520-4cc6d9b5dca3",
        "name": "Västra Ingelstad station",
        "coordinates": [
            55.490259,
            13.108327
        ],
        "transport_mode": "rail"
    },
    {
        "id": "8bfed7d4-a03e-49de-9d91-40b3666834a0",
        "name": "Västra Ingelstad station",
        "coordinates": [
            55.490259,
            13.108327
        ],
        "transport_mode": "bus"
    },
    {
        "id": "af844e19-5bec-4a9e-9669-a149dd4128a6",
        "name": "Västra Ingelstad station",
        "coordinates": [
            55.490259,
            13.108327
        ],
        "transport_mode": "rail"
    },
    {
        "id": "722ab559-4088-4aac-b57f-069345b5e8bf",
        "name": "Marieholm station",
        "coordinates": [
            55.864837,
            13.156878
        ],
        "transport_mode": "rail"
    },
    {
        "id": "f9cbfba7-5b23-4d1f-9473-ec3ec1e97765",
        "name": "Marieholm station",
        "coordinates": [
            55.864837,
            13.156878
        ],
        "transport_mode": "bus"
    },
    {
        "id": "af39f23e-e1a6-4575-8f3b-cfe410b930db",
        "name": "Marieholm station",
        "coordinates": [
            55.864837,
            13.156878
        ],
        "transport_mode": "rail"
    },
    {
        "id": "dfcb2b03-5c16-4379-8287-6c118e920796",
        "name": "Malmö Rosengård station",
        "coordinates": [
            55.589438,
            13.031727
        ],
        "transport_mode": "rail"
    },
    {
        "id": "0162a933-62e3-4230-a895-312b094e6840",
        "name": "Malmö Rosengård station",
        "coordinates": [
            55.589438,
            13.031727
        ],
        "transport_mode": "bus"
    },
    {
        "id": "dbc11287-3b05-4517-adf0-471f75322482",
        "name": "Malmö Rosengård station",
        "coordinates": [
            55.589438,
            13.031727
        ],
        "transport_mode": "rail"
    },
    {
        "id": "55a7fcfd-d7be-4592-836c-0197d22f76ab",
        "name": "Kalkugnen (Kalkugnen) (Älvkarleby)",
        "coordinates": [
            54.648783,
            19.694783
        ],
        "transport_mode": "bus"
    },
    {
        "id": "cebe8b71-231e-4006-aa43-565b5726a11b",
        "name": "Fridhem",
        "coordinates": [
            56.407644,
            14.935623
        ],
        "transport_mode": "bus"
    },
    {
        "id": "5f4b1ba2-7774-4094-a1b7-7ce4b2c6c4ea",
        "name": "Dackeskolan",
        "coordinates": [
            56.527814,
            14.974193
        ],
        "transport_mode": "bus"
    },
    {
        "id": "016a9c93-bac8-4768-ab56-776f06f254d4",
        "name": "Trojaskolan Ryd",
        "coordinates": [
            56.466674,
            14.691572
        ],
        "transport_mode": "bus"
    },
    {
        "id": "9492c404-d282-46c8-8c4d-009e21a0758a",
        "name": "Norrahult",
        "coordinates": [
            56.419748,
            14.953285
        ],
        "transport_mode": "bus"
    },
    {
        "id": "d52655ac-eefe-4d02-843a-d9967da2a5b5",
        "name": "Degerhaga",
        "coordinates": [
            56.526872,
            14.921077
        ],
        "transport_mode": "bus"
    },
    {
        "id": "8f68bdbd-bdd1-4e87-8e89-ff4baa666298",
        "name": "Hunnamålavägen",
        "coordinates": [
            56.530031,
            14.819334
        ],
        "transport_mode": "bus"
    },
    {
        "id": "647e4411-9991-48f9-a95b-55c8d48ad673",
        "name": "Snickaregård",
        "coordinates": [
            56.529326,
            15.170972
        ],
        "transport_mode": "bus"
    },
    {
        "id": "a3a2f4b0-d2ba-472d-beff-ec188975d9ab",
        "name": "Sjöryd",
        "coordinates": [
            56.51833,
            14.750672
        ],
        "transport_mode": "bus"
    },
    {
        "id": "82359e44-fb26-4c15-9ef0-e57495ef537f",
        "name": "Jämshög, Tingsryd",
        "coordinates": [
            56.536964,
            14.999771
        ],
        "transport_mode": "bus"
    },
    {
        "id": "12983729-8d3f-41e6-a95d-3f05a6a8c61e",
        "name": "Kroksjöbo",
        "coordinates": [
            56.5502,
            15.033522
        ],
        "transport_mode": "bus"
    },
    {
        "id": "fa559329-1c18-4e77-bc52-cc818fa0efd4",
        "name": "Södergården",
        "coordinates": [
            56.545082,
            15.023595
        ],
        "transport_mode": "bus"
    },
    {
        "id": "1c453aad-d538-4b51-9648-827ca2b15e52",
        "name": "Wasaskolan",
        "coordinates": [
            56.531437,
            14.984238
        ],
        "transport_mode": "bus"
    },
    {
        "id": "a4d5dfb7-6ffe-420f-9588-4515882e1d16",
        "name": "Storgatan",
        "coordinates": [
            56.521722,
            14.980419
        ],
        "transport_mode": "bus"
    },
    {
        "id": "60100ad7-71a6-4bbb-88ed-55fc4acfa0b9",
        "name": "Bultvägen",
        "coordinates": [
            56.519554,
            14.985308
        ],
        "transport_mode": "bus"
    },
    {
        "id": "c79b4b8b-7f29-4b55-8929-2917a8ed90a6",
        "name": "Dubbvägen",
        "coordinates": [
            56.517312,
            14.995445
        ],
        "transport_mode": "bus"
    },
    {
        "id": "02497d8f-222d-4499-8508-fade557b5a8c",
        "name": "Djuramåla",
        "coordinates": [
            56.463867,
            15.013651
        ],
        "transport_mode": "bus"
    },
    {
        "id": "ae54356c-0aed-417d-97cf-3cb7747f9da6",
        "name": "Elserås",
        "coordinates": [
            56.482334,
            15.002781
        ],
        "transport_mode": "bus"
    },
    {
        "id": "89854bf0-c2e4-48df-921f-a35aebeeb46c",
        "name": "Elsemåla",
        "coordinates": [
            56.490665,
            14.999488
        ],
        "transport_mode": "bus"
    },
    {
        "id": "c5e6c4fb-34f4-4d07-ac09-7b15efe6ebc8",
        "name": "Skogryd",
        "coordinates": [
            56.499047,
            14.995819
        ],
        "transport_mode": "bus"
    },
    {
        "id": "7ea4ea23-f8e2-4a20-b93a-39679c707d13",
        "name": "Plogvägen Tingsryd",
        "coordinates": [
            56.515013,
            14.99681
        ],
        "transport_mode": "bus"
    },
    {
        "id": "1f52d9b7-7dc5-446a-9091-1d2b4f691ca1",
        "name": "Hensmåla",
        "coordinates": [
            56.500786,
            15.047907
        ],
        "transport_mode": "bus"
    },
    {
        "id": "e7aef6cd-2c4b-46b3-86ce-3304ee64e890",
        "name": "Hensmåla östra",
        "coordinates": [
            56.498129,
            15.064425
        ],
        "transport_mode": "bus"
    },
    {
        "id": "a679383f-a375-4988-af90-9737653a8c1f",
        "name": "Kristinelund, Tingsryd",
        "coordinates": [
            56.497273,
            15.074606
        ],
        "transport_mode": "bus"
    },
    {
        "id": "3723a060-6939-4743-9f48-107c9a527cb8",
        "name": "Aritsbomåla",
        "coordinates": [
            56.504376,
            15.102419
        ],
        "transport_mode": "bus"
    },
    {
        "id": "9e4e3827-dac9-488d-a509-7d96364a6a2b",
        "name": "Örmoskolan",
        "coordinates": [
            56.499715,
            15.126586
        ],
        "transport_mode": "bus"
    },
    {
        "id": "0ed40673-7acf-442d-a594-79681db8cbcf",
        "name": "Dalen",
        "coordinates": [
            56.504746,
            15.128623
        ],
        "transport_mode": "bus"
    },
    {
        "id": "6c72a5ab-9c44-4ebc-ae21-2bf37cd2258b",
        "name": "Södra Sandsjö",
        "coordinates": [
            56.510989,
            15.152161
        ],
        "transport_mode": "bus"
    },
    {
        "id": "23cae524-8235-40ff-89e2-1f87a3122622",
        "name": "Södra Sandsjö",
        "coordinates": [
            56.510989,
            15.152161
        ],
        "transport_mode": "bus"
    },
    {
        "id": "48764e76-eef2-4d47-bdd1-998accb94ca7",
        "name": "Södra Sandsjö",
        "coordinates": [
            56.510989,
            15.152161
        ],
        "transport_mode": "bus"
    },
    {
        "id": "d4ed06f0-65e2-4e03-84b2-a0c141e6087f",
        "name": "Holmahult",
        "coordinates": [
            56.533456,
            15.174268
        ],
        "transport_mode": "bus"
    },
    {
        "id": "2ef13b43-6353-4012-87a5-0e9993f9c827",
        "name": "Älften",
        "coordinates": [
            56.547039,
            15.18934
        ],
        "transport_mode": "bus"
    },
    {
        "id": "8fed7088-283c-48af-8a7b-868205f4d469",
        "name": "Hemmingsmåla",
        "coordinates": [
            56.549668,
            15.205378
        ],
        "transport_mode": "bus"
    },
    {
        "id": "45e83143-7fbc-428d-88da-13f4ff49f9ce",
        "name": "Smöramåla",
        "coordinates": [
            56.529955,
            14.825707
        ],
        "transport_mode": "bus"
    },
    {
        "id": "868b28e4-ea3c-4aba-b18f-676a1fcac125",
        "name": "Trehörna",
        "coordinates": [
            56.532103,
            14.836118
        ],
        "transport_mode": "bus"
    },
    {
        "id": "aaa45948-7d50-43d1-a4c4-37832fd7fb30",
        "name": "Trehörna östra",
        "coordinates": [
            56.532352,
            14.848593
        ],
        "transport_mode": "bus"
    },
    {
        "id": "12f371c3-a354-42fc-9dac-54c4a3916aa7",
        "name": "Havralyckevägen",
        "coordinates": [
            56.53066,
            14.862157
        ],
        "transport_mode": "bus"
    },
    {
        "id": "f7f9f2b5-cfb0-4ca0-ba5a-119331e3963e",
        "name": "Bredaslätt",
        "coordinates": [
            56.530511,
            14.884198
        ],
        "transport_mode": "bus"
    },
    {
        "id": "655e2e15-9964-4f2b-b4dc-1c6d5c88dccc",
        "name": "Drakamåla",
        "coordinates": [
            56.530023,
            14.9022
        ],
        "transport_mode": "bus"
    },
    {
        "id": "c4c22ff6-4eee-4b09-a795-0bddd2aa7122",
        "name": "Kroksjömåla",
        "coordinates": [
            56.527078,
            14.946487
        ],
        "transport_mode": "bus"
    },
    {
        "id": "4b3b9b38-6d87-46c9-87f2-1349ae3df067",
        "name": "Mårslycke",
        "coordinates": [
            56.529498,
            14.956345
        ],
        "transport_mode": "bus"
    },
    {
        "id": "f3c0bcad-6186-4e4e-91df-102213812f4a",
        "name": "Vipan",
        "coordinates": [
            56.529723,
            14.968317
        ],
        "transport_mode": "bus"
    },
    {
        "id": "a1296513-d47e-4ce3-9063-6c1274c633b6",
        "name": "Växjövägen",
        "coordinates": [
            56.531706,
            14.962699
        ],
        "transport_mode": "bus"
    },
    {
        "id": "32d77c7a-76b5-4ae5-99e4-88e62fc83245",
        "name": "Solhem",
        "coordinates": [
            56.547821,
            14.955187
        ],
        "transport_mode": "bus"
    },
    {
        "id": "273dac72-2df6-4e6d-8422-e1f7f87ebb06",
        "name": "Stenshult",
        "coordinates": [
            56.519369,
            14.63511
        ],
        "transport_mode": "bus"
    },
    {
        "id": "5746719d-d01c-4217-8400-6a5c05b3902c",
        "name": "Trestenshult",
        "coordinates": [
            56.503594,
            14.686266
        ],
        "transport_mode": "bus"
    },
    {
        "id": "4c6c3c41-ca9d-48bb-8a95-c37cfd9fb813",
        "name": "Anderslund",
        "coordinates": [
            56.415553,
            14.660078
        ],
        "transport_mode": "bus"
    },
    {
        "id": "e49d4589-bb7b-4383-a601-2b8c17eb4aca",
        "name": "Slattesmåla",
        "coordinates": [
            56.428463,
            14.66922
        ],
        "transport_mode": "bus"
    },
    {
        "id": "5ea99093-c664-42dd-a4d2-7c5586f3987d",
        "name": "Inlockahult",
        "coordinates": [
            56.444592,
            14.680949
        ],
        "transport_mode": "bus"
    },
    {
        "id": "46d9d904-c0c6-4f8e-8053-a8fbfead7536",
        "name": "Maskinvägen",
        "coordinates": [
            56.462085,
            14.686547
        ],
        "transport_mode": "bus"
    },
    {
        "id": "5f1e7ae5-ec19-4a58-966e-3bedb25adab6",
        "name": "Torget",
        "coordinates": [
            56.465103,
            14.693597
        ],
        "transport_mode": "bus"
    },
    {
        "id": "4bb65b74-e355-4ca5-8902-322ac023e8ff",
        "name": "Sjölunden",
        "coordinates": [
            56.470408,
            14.693328
        ],
        "transport_mode": "bus"
    },
    {
        "id": "f1511182-34a4-4145-ab5b-aaa5079a78bf",
        "name": "Blidingsholm",
        "coordinates": [
            56.503053,
            14.722563
        ],
        "transport_mode": "bus"
    },
    {
        "id": "9b260cc4-25d6-4d97-9d87-25bc3aea97ef",
        "name": "Långaryd",
        "coordinates": [
            56.512739,
            14.739635
        ],
        "transport_mode": "bus"
    },
    {
        "id": "f20d070b-aaf7-4609-b436-5659fe934a5d",
        "name": "Östra Älmehult",
        "coordinates": [
            56.523496,
            14.766891
        ],
        "transport_mode": "bus"
    },
    {
        "id": "4ab8b606-b881-4c84-897b-876227a7d836",
        "name": "Hackekvarnsvägen",
        "coordinates": [
            56.527329,
            14.791714
        ],
        "transport_mode": "bus"
    },
    {
        "id": "49acc8e2-763d-40b9-8991-fdbc6946fa5b",
        "name": "Urshult kyrka",
        "coordinates": [
            56.529631,
            14.798673
        ],
        "transport_mode": "bus"
    },
    {
        "id": "8c9a0c5a-e863-4ef3-94d5-a6d95f60c92e",
        "name": "Stationsvägen Urshult",
        "coordinates": [
            56.531613,
            14.812744
        ],
        "transport_mode": "bus"
    },
    {
        "id": "8469f081-26a1-4192-aa64-0c53b20b6e3e",
        "name": "Ålshult",
        "coordinates": [
            56.525154,
            14.662263
        ],
        "transport_mode": "bus"
    },
    {
        "id": "05fdaeee-3161-4068-8cfe-ed9a7ff6b14a",
        "name": "Norraryd",
        "coordinates": [
            56.484054,
            14.696662
        ],
        "transport_mode": "bus"
    },
    {
        "id": "a3f0c4a2-a5f7-4c98-ac02-8b3b0ee6c67d",
        "name": "Kråkebro",
        "coordinates": [
            56.492497,
            14.698738
        ],
        "transport_mode": "bus"
    },
    {
        "id": "5c9e7c40-c914-46db-86bf-5e59a939d7cb",
        "name": "Granö",
        "coordinates": [
            56.438073,
            14.675159
        ],
        "transport_mode": "bus"
    },
    {
        "id": "e0c6f764-2eba-4ccc-851a-ce643a3cf542",
        "name": "Kuppersmåla",
        "coordinates": [
            56.449185,
            14.682289
        ],
        "transport_mode": "bus"
    },
    {
        "id": "77d8984d-3c74-4710-82f4-df1b0439189b",
        "name": "Älmehult",
        "coordinates": [
            56.537004,
            14.735231
        ],
        "transport_mode": "other"
    },
    {
        "id": "d30cf500-1044-4d01-b989-0bcc04b919b4",
        "name": "Ekefors, Tingsryd",
        "coordinates": [
            56.543753,
            14.755736
        ],
        "transport_mode": "other"
    },
    {
        "id": "241ceb38-60ae-4a1d-bb8f-af3ea21417bf",
        "name": "Dunshult",
        "coordinates": [
            56.536422,
            14.782336
        ],
        "transport_mode": "other"
    },
    {
        "id": "d4e96a38-b26c-416d-830f-7253ee9c9f81",
        "name": "Stenfors",
        "coordinates": [
            56.458194,
            15.000046
        ],
        "transport_mode": "bus"
    },
    {
        "id": "9f35cbb4-18f7-40d9-a21f-d0a616dd7245",
        "name": "Knällsberg",
        "coordinates": [
            56.441311,
            14.9785
        ],
        "transport_mode": "bus"
    },
    {
        "id": "c80244ca-d757-47d9-873d-45e18d3743db",
        "name": "Gäddeviksås vägskäl",
        "coordinates": [
            56.384648,
            14.902409
        ],
        "transport_mode": "bus"
    },
    {
        "id": "701516b5-f531-42f4-b329-1ddf5578de92",
        "name": "Örtvägen",
        "coordinates": [
            56.544798,
            14.118448
        ],
        "transport_mode": "bus"
    },
    {
        "id": "12eb49f9-f7d3-412c-8a3f-e2383ca229fb",
        "name": "Klöxhultskolan",
        "coordinates": [
            56.547508,
            14.119563
        ],
        "transport_mode": "bus"
    },
    {
        "id": "b0a7cc9a-dd21-4f9f-ba82-890fd9950235",
        "name": "Amundshylte",
        "coordinates": [
            56.515925,
            14.574326
        ],
        "transport_mode": "bus"
    },
    {
        "id": "d21147da-2555-46f9-b919-08b081efdc62",
        "name": "Karsemålavägen",
        "coordinates": [
            56.521369,
            14.523845
        ],
        "transport_mode": "bus"
    },
    {
        "id": "eda167ac-90f6-4a97-87a1-0f2b8c070f81",
        "name": "Brändetorpsvägen",
        "coordinates": [
            56.521029,
            14.499809
        ],
        "transport_mode": "bus"
    },
    {
        "id": "b3eddb77-3c36-4a7d-9a4c-3b3144615492",
        "name": "Häradsmåla",
        "coordinates": [
            56.520454,
            14.480363
        ],
        "transport_mode": "bus"
    },
    {
        "id": "f00b57de-e7ec-460d-b1b5-df8ced3f990b",
        "name": "Bygdegården, Häradsbäck",
        "coordinates": [
            56.530051,
            14.463158
        ],
        "transport_mode": "bus"
    },
    {
        "id": "bbb9dc43-090c-451c-b0ba-1a0c769a1fea",
        "name": "Knoxhultsv. Häradsbäck",
        "coordinates": [
            56.529955,
            14.451021
        ],
        "transport_mode": "bus"
    },
    {
        "id": "808ea3c1-4bc8-45be-9f1d-7158b22c4eae",
        "name": "Torbjörnahult",
        "coordinates": [
            56.527913,
            14.412578
        ],
        "transport_mode": "bus"
    },
    {
        "id": "9582a294-53c2-4e56-866d-fffa1f4ca5b0",
        "name": "Uthövdan",
        "coordinates": [
            56.527565,
            14.400874
        ],
        "transport_mode": "bus"
    },
    {
        "id": "41d85a23-8b13-46af-a429-18a07daf5393",
        "name": "Barkhult",
        "coordinates": [
            56.526774,
            14.377193
        ],
        "transport_mode": "bus"
    },
    {
        "id": "83b2335b-eee8-4f4b-853d-7a4c9ff8c66a",
        "name": "Sänneshult vägskäl",
        "coordinates": [
            56.535326,
            14.359429
        ],
        "transport_mode": "bus"
    },
    {
        "id": "9a093f7c-dd4a-45a0-a113-6bad08232201",
        "name": "Agnshult",
        "coordinates": [
            56.540295,
            14.351924
        ],
        "transport_mode": "bus"
    },
    {
        "id": "e2852b01-b641-44b7-8f4b-112c29d12098",
        "name": "Dammen",
        "coordinates": [
            56.545214,
            14.322843
        ],
        "transport_mode": "bus"
    },
    {
        "id": "126e5969-09f6-4edb-94d4-8bd510b99c35",
        "name": "Virestadvägen",
        "coordinates": [
            56.54847,
            14.310472
        ],
        "transport_mode": "bus"
    },